{"LastUpdate":"1413045901190","Station":[{"Name":"River Street , Clerkenwell","TerminalName":"001023","Lat":51.52916347,"Long":-0.109970527,"Installed":true,"Locked":false},{"Name":"Phillimore Gardens, Kensington","TerminalName":"001018","Lat":51.49960695,"Long":-0.197574246,"Installed":true,"Locked":false},{"Name":"Christopher Street, Liverpool Street","TerminalName":"001012","Lat":51.52128377,"Long":-0.084605692,"Installed":true,"Locked":false},{"Name":"St. Chad's Street, King's Cross","TerminalName":"001013","Lat":51.53005939,"Long":-0.120973687,"Installed":true,"Locked":false},{"Name":"Sedding Street, Sloane Square","TerminalName":"003420","Lat":51.49313,"Long":-0.156876,"Installed":true,"Locked":false},{"Name":"Broadcasting House, Marylebone","TerminalName":"003424","Lat":51.51811784,"Long":-0.144228881,"Installed":true,"Locked":false},{"Name":"Charlbert Street, St. John's Wood","TerminalName":"003422","Lat":51.53430039,"Long":-0.1680743,"Installed":true,"Locked":false},{"Name":"Lodge Road, St. John's Wood","TerminalName":"003423","Lat":51.52834133,"Long":-0.170134484,"Installed":true,"Locked":false},{"Name":"New Globe Walk, Bankside","TerminalName":"001015","Lat":51.5073853,"Long":-0.096440751,"Installed":true,"Locked":false},{"Name":"Park Street, Bankside","TerminalName":"001024","Lat":51.50597426,"Long":-0.092754157,"Installed":true,"Locked":false},{"Name":"Brunswick Square, Bloomsbury","TerminalName":"001022","Lat":51.52395143,"Long":-0.122502346,"Installed":true,"Locked":false},{"Name":"Malet Street, Bloomsbury","TerminalName":"000980","Lat":51.52168078,"Long":-0.130431727,"Installed":true,"Locked":false},{"Name":"Scala Street, Fitzrovia","TerminalName":"000970","Lat":51.51991453,"Long":-0.136039674,"Installed":true,"Locked":false},{"Name":"Belgrove Street , King's Cross","TerminalName":"001011","Lat":51.52994371,"Long":-0.123616824,"Installed":true,"Locked":false},{"Name":"Great Russell Street, Bloomsbury","TerminalName":"000988","Lat":51.51772703,"Long":-0.127854211,"Installed":true,"Locked":false},{"Name":"Cartwright Gardens , Bloomsbury","TerminalName":"001010","Lat":51.52635795,"Long":-0.125979294,"Installed":true,"Locked":false},{"Name":"Hatton Wall, Holborn","TerminalName":"001008","Lat":51.5216612,"Long":-0.109006325,"Installed":true,"Locked":false},{"Name":"Drury Lane, Covent Garden","TerminalName":"001007","Lat":51.51477076,"Long":-0.12221963,"Installed":true,"Locked":false},{"Name":"Taviton Street, Bloomsbury","TerminalName":"001009","Lat":51.52505093,"Long":-0.131161087,"Installed":true,"Locked":false},{"Name":"Drummond Street , Euston","TerminalName":"000993","Lat":51.52773634,"Long":-0.135273468,"Installed":true,"Locked":false},{"Name":"Hampstead Road (Cartmel), Euston","TerminalName":"003426","Lat":51.53007835,"Long":-0.13884627,"Installed":true,"Locked":false},{"Name":"Northington Street , Holborn","TerminalName":"003425","Lat":51.5222641,"Long":-0.114079481,"Installed":true,"Locked":false},{"Name":"British Museum, Bloomsbury","TerminalName":"000981","Lat":51.51908011,"Long":-0.124678402,"Installed":true,"Locked":false},{"Name":"Doric Way , Somers Town","TerminalName":"001004","Lat":51.5288338,"Long":-0.132250369,"Installed":true,"Locked":false},{"Name":"Ampton Street , Clerkenwell","TerminalName":"001019","Lat":51.52728093,"Long":-0.11829517,"Installed":true,"Locked":false},{"Name":"Bouverie Street, Temple","TerminalName":"001021","Lat":51.51382102,"Long":-0.107927706,"Installed":true,"Locked":false},{"Name":"Bolsover Street, Fitzrovia","TerminalName":"001025","Lat":51.52351808,"Long":-0.143613641,"Installed":true,"Locked":false},{"Name":"Hereford Road, Bayswater","TerminalName":"001016","Lat":51.513735,"Long":-0.193487,"Installed":true,"Locked":false},{"Name":"Windsor Terrace, Hoxton","TerminalName":"001029","Lat":51.52915444,"Long":-0.093421615,"Installed":true,"Locked":false},{"Name":"Fanshaw Street, Hoxton","TerminalName":"003427","Lat":51.52953709,"Long":-0.083353323,"Installed":true,"Locked":false},{"Name":"Leonard Circus , Shoreditch","TerminalName":"001020","Lat":51.52469624,"Long":-0.084439283,"Installed":true,"Locked":false},{"Name":"Altab Ali Park, Whitechapel","TerminalName":"003430","Lat":51.51681603,"Long":-0.067827542,"Installed":true,"Locked":false},{"Name":"Pancras Road, King's Cross","TerminalName":"003428","Lat":51.5341235,"Long":-0.129386874,"Installed":true,"Locked":false},{"Name":"De Vere Gardens, Kensington","TerminalName":"003446","Lat":51.50173726,"Long":-0.184980612,"Installed":true,"Locked":false},{"Name":"Abingdon Villas, Kensington","TerminalName":"003442","Lat":51.4973875,"Long":-0.197245586,"Installed":true,"Locked":false},{"Name":"Shoreditch High Street, Shoreditch","TerminalName":"003445","Lat":51.5263778,"Long":-0.078130921,"Installed":true,"Locked":false},{"Name":"Commercial Street, Shoreditch","TerminalName":"001083","Lat":51.52127071,"Long":-0.0755789,"Installed":true,"Locked":false},{"Name":"Sun Street, Liverpool Street","TerminalName":"001084","Lat":51.52001715,"Long":-0.083911168,"Installed":true,"Locked":false},{"Name":"Wenlock Road , Hoxton","TerminalName":"000979","Lat":51.53099181,"Long":-0.093903825,"Installed":true,"Locked":false},{"Name":"Crawford Street, Marylebone","TerminalName":"001036","Lat":51.52026,"Long":-0.157183945,"Installed":true,"Locked":false},{"Name":"Harewood Avenue, Marylebone","TerminalName":"001035","Lat":51.52231968,"Long":-0.163849118,"Installed":true,"Locked":false},{"Name":"Nesham Street, Wapping","TerminalName":"001031","Lat":51.507131,"Long":-0.06691,"Installed":true,"Locked":false},{"Name":"Warwick Avenue Station, Maida Vale","TerminalName":"001027","Lat":51.52334476,"Long":-0.183846408,"Installed":true,"Locked":false},{"Name":"Godliman Street, St. Paul's","TerminalName":"000971","Lat":51.51248445,"Long":-0.099141408,"Installed":true,"Locked":false},{"Name":"Curzon Street, Mayfair","TerminalName":"003437","Lat":51.50706909,"Long":-0.145904427,"Installed":true,"Locked":false},{"Name":"East Road, Hoxton","TerminalName":"001054","Lat":51.52867339,"Long":-0.087459376,"Installed":true,"Locked":false},{"Name":"Finsbury Library , Finsbury","TerminalName":"000986","Lat":51.52671796,"Long":-0.104298194,"Installed":true,"Locked":false},{"Name":"Roscoe Street, St. Luke's","TerminalName":"001026","Lat":51.52295439,"Long":-0.094934859,"Installed":true,"Locked":false},{"Name":"Grafton Street, Mayfair","TerminalName":"003431","Lat":51.5099923,"Long":-0.143495266,"Installed":true,"Locked":false},{"Name":"Golden Lane, Barbican","TerminalName":"000967","Lat":51.52174785,"Long":-0.094475072,"Installed":true,"Locked":false},{"Name":"Finsbury Circus, Liverpool Street","TerminalName":"000984","Lat":51.51707521,"Long":-0.086685542,"Installed":true,"Locked":false},{"Name":"Paddington Street, Marylebone","TerminalName":"001033","Lat":51.52058381,"Long":-0.154701411,"Installed":true,"Locked":false},{"Name":"Guilford Street , Bloomsbury","TerminalName":"000974","Lat":51.52334672,"Long":-0.120202614,"Installed":true,"Locked":false},{"Name":"New Inn Yard, Shoreditch","TerminalName":"001032","Lat":51.52452699,"Long":-0.079248081,"Installed":true,"Locked":false},{"Name":"Rodney Street, Angel","TerminalName":"001014","Lat":51.53176825,"Long":-0.114329032,"Installed":true,"Locked":false},{"Name":"Lisson Grove, St. John's Wood","TerminalName":"001030","Lat":51.52644828,"Long":-0.172190727,"Installed":true,"Locked":false},{"Name":"Great Dover Street, Borough","TerminalName":"001017","Lat":51.49738251,"Long":-0.089446947,"Installed":true,"Locked":false},{"Name":"Cotton Garden Estate, Kennington","TerminalName":"000990","Lat":51.4907579,"Long":-0.106323685,"Installed":true,"Locked":false},{"Name":"Murray Grove , Hoxton","TerminalName":"000989","Lat":51.53089041,"Long":-0.089782579,"Installed":true,"Locked":false},{"Name":"William IV Street, Strand","TerminalName":"001028","Lat":51.50946212,"Long":-0.124749274,"Installed":true,"Locked":false},{"Name":"Gower Place , Euston","TerminalName":"000969","Lat":51.52522753,"Long":-0.13518856,"Installed":true,"Locked":false},{"Name":"Holborn Circus, Holborn","TerminalName":"000982","Lat":51.51795029,"Long":-0.108657431,"Installed":true,"Locked":false},{"Name":"Hatton Garden, Holborn","TerminalName":"000985","Lat":51.51882555,"Long":-0.108028472,"Installed":true,"Locked":false},{"Name":"Theobalds Road , Holborn","TerminalName":"000975","Lat":51.52059681,"Long":-0.116688468,"Installed":true,"Locked":false},{"Name":"Euston Road, Euston","TerminalName":"000983","Lat":51.5262363,"Long":-0.134407652,"Installed":true,"Locked":false},{"Name":"Calshot Street , King's Cross","TerminalName":"001066","Lat":51.53136059,"Long":-0.117069978,"Installed":true,"Locked":false},{"Name":"Newgate Street , St. Paul's","TerminalName":"001074","Lat":51.5154186,"Long":-0.098850915,"Installed":true,"Locked":false},{"Name":"Farringdon Lane, Clerkenwell","TerminalName":"003432","Lat":51.52352001,"Long":-0.108340165,"Installed":true,"Locked":false},{"Name":"Old Street Station, St. Luke's","TerminalName":"001064","Lat":51.52572618,"Long":-0.088486188,"Installed":true,"Locked":false},{"Name":"Vauxhall Cross, Vauxhall","TerminalName":"001000","Lat":51.48591714,"Long":-0.124469948,"Installed":true,"Locked":false},{"Name":"Torrens Street, Angel","TerminalName":"001060","Lat":51.53219984,"Long":-0.105480698,"Installed":true,"Locked":false},{"Name":"Longford Street, Regent's Park","TerminalName":"000976","Lat":51.52559505,"Long":-0.144083893,"Installed":true,"Locked":false},{"Name":"Russell Square Station, Bloomsbury","TerminalName":"000978","Lat":51.52341837,"Long":-0.124121774,"Installed":true,"Locked":false},{"Name":"Sadlers Sports Centre, Finsbury","TerminalName":"003433","Lat":51.52486887,"Long":-0.099489485,"Installed":true,"Locked":false},{"Name":"Webber Street , Southwark","TerminalName":"003448","Lat":51.50069361,"Long":-0.102091246,"Installed":true,"Locked":false},{"Name":"Great Titchfield Street, Fitzrovia","TerminalName":"003450","Lat":51.52025302,"Long":-0.141327271,"Installed":true,"Locked":false},{"Name":"Chancery Lane, Holborn","TerminalName":"003453","Lat":51.514274,"Long":-0.111257,"Installed":true,"Locked":false},{"Name":"Panton Street, West End","TerminalName":"003452","Lat":51.50963938,"Long":-0.131510949,"Installed":true,"Locked":false},{"Name":"Breams Buildings, Holborn","TerminalName":"003449","Lat":51.51593725,"Long":-0.111778348,"Installed":true,"Locked":false},{"Name":"Tanner Street, Bermondsey","TerminalName":"000994","Lat":51.50064702,"Long":-0.078600401,"Installed":true,"Locked":false},{"Name":"Sancroft Street, Vauxhall","TerminalName":"003434","Lat":51.48947903,"Long":-0.115156562,"Installed":true,"Locked":false},{"Name":"Devonshire Square, Liverpool Street","TerminalName":"003438","Lat":51.51646835,"Long":-0.079684557,"Installed":true,"Locked":false},{"Name":"Bayley Street , Bloomsbury","TerminalName":"001006","Lat":51.51858757,"Long":-0.132053392,"Installed":true,"Locked":false},{"Name":"Tavistock Place, Bloomsbury","TerminalName":"003439","Lat":51.5262503,"Long":-0.123509611,"Installed":true,"Locked":false},{"Name":"Harrington Square, Camden Town","TerminalName":"001038","Lat":51.53301907,"Long":-0.139174593,"Installed":true,"Locked":false},{"Name":"Walnut Tree Walk, Vauxhall","TerminalName":"001076","Lat":51.49368637,"Long":-0.111014912,"Installed":true,"Locked":false},{"Name":"Borough Road, Elephant \u0026 Castle","TerminalName":"001082","Lat":51.49889832,"Long":-0.100440521,"Installed":true,"Locked":false},{"Name":"Cloudesley Road, Angel","TerminalName":"002586","Lat":51.53440868,"Long":-0.109025404,"Installed":true,"Locked":false},{"Name":"Bricklayers Arms, Borough","TerminalName":"001070","Lat":51.49506109,"Long":-0.085814489,"Installed":true,"Locked":false},{"Name":"Aldersgate Street, Barbican","TerminalName":"001065","Lat":51.5208417,"Long":-0.097340162,"Installed":true,"Locked":false},{"Name":"Falkirk Street, Hoxton","TerminalName":"001047","Lat":51.53095071,"Long":-0.078505384,"Installed":true,"Locked":false},{"Name":"Gloucester Road (North), Kensington","TerminalName":"003447","Lat":51.49792478,"Long":-0.183834706,"Installed":true,"Locked":false},{"Name":"Hampstead Road, Euston","TerminalName":"000972","Lat":51.52554222,"Long":-0.138231303,"Installed":true,"Locked":false},{"Name":"Old Quebec Street, Marylebone","TerminalName":"001085","Lat":51.51457763,"Long":-0.158264483,"Installed":true,"Locked":false},{"Name":"Albert Embankment, Vauxhall","TerminalName":"001059","Lat":51.49043573,"Long":-0.122806861,"Installed":true,"Locked":false},{"Name":"Queen Street, Bank","TerminalName":"000999","Lat":51.51155322,"Long":-0.0929401,"Installed":true,"Locked":false},{"Name":"Jewry Street, Aldgate","TerminalName":"001045","Lat":51.51340693,"Long":-0.076793375,"Installed":true,"Locked":false},{"Name":"Vicarage Gate, Kensington","TerminalName":"003441","Lat":51.50472376,"Long":-0.192538767,"Installed":true,"Locked":false},{"Name":"Crosswall, Tower","TerminalName":"000991","Lat":51.51159481,"Long":-0.077121322,"Installed":true,"Locked":false},{"Name":"Westbourne Grove, Bayswater","TerminalName":"001041","Lat":51.51552971,"Long":-0.190240716,"Installed":true,"Locked":false},{"Name":"Woodstock Street, Mayfair","TerminalName":"001042","Lat":51.51410514,"Long":-0.147301667,"Installed":true,"Locked":false},{"Name":"Finsbury Leisure Centre, St. Luke's","TerminalName":"001049","Lat":51.52600832,"Long":-0.096317627,"Installed":true,"Locked":false},{"Name":"Abbey Orchard Street, Westminster","TerminalName":"003429","Lat":51.49812559,"Long":-0.132102166,"Installed":true,"Locked":false},{"Name":"Soho Square , Soho","TerminalName":"001052","Lat":51.51563144,"Long":-0.132328837,"Installed":true,"Locked":false},{"Name":"Wellington Road, St. John's Wood","TerminalName":"001055","Lat":51.53304322,"Long":-0.172528678,"Installed":true,"Locked":false},{"Name":"Park Lane , Hyde Park","TerminalName":"001037","Lat":51.5100172,"Long":-0.157275636,"Installed":true,"Locked":false},{"Name":"Stonecutter Street, Holborn","TerminalName":"001061","Lat":51.51580998,"Long":-0.105270275,"Installed":true,"Locked":false},{"Name":"Gloucester Road (Central), South Kensington","TerminalName":"003435","Lat":51.49646288,"Long":-0.183289032,"Installed":true,"Locked":false},{"Name":"Park Road (Baker Street), Regent's Park","TerminalName":"001050","Lat":51.52451738,"Long":-0.158963647,"Installed":true,"Locked":false},{"Name":"Braham Street, Aldgate","TerminalName":"001062","Lat":51.51423368,"Long":-0.073537654,"Installed":true,"Locked":false},{"Name":"Little Argyll Street, West End","TerminalName":"000995","Lat":51.51449962,"Long":-0.141423695,"Installed":true,"Locked":false},{"Name":"Lollard Street, Vauxhall","TerminalName":"000998","Lat":51.49288067,"Long":-0.114934001,"Installed":true,"Locked":false},{"Name":"Rochester Row, Westminster","TerminalName":"003457","Lat":51.49582705,"Long":-0.13547809,"Installed":true,"Locked":false},{"Name":"Bath Street, St. Luke's","TerminalName":"000964","Lat":51.52589324,"Long":-0.090847761,"Installed":true,"Locked":false},{"Name":"The Guildhall, Guildhall","TerminalName":"001044","Lat":51.51573534,"Long":-0.093080779,"Installed":true,"Locked":false},{"Name":"Baker Street, Marylebone","TerminalName":"001086","Lat":51.51891348,"Long":-0.156166631,"Installed":true,"Locked":false},{"Name":"Norton Folgate, Liverpool Street","TerminalName":"001068","Lat":51.52111369,"Long":-0.078869751,"Installed":true,"Locked":false},{"Name":"St. John Street, Finsbury","TerminalName":"000992","Lat":51.52836014,"Long":-0.104724625,"Installed":true,"Locked":false},{"Name":"Eaton Square, Belgravia","TerminalName":"001069","Lat":51.49654462,"Long":-0.150905245,"Installed":true,"Locked":false},{"Name":"Borough High Street, The Borough","TerminalName":"000996","Lat":51.50069491,"Long":-0.094524319,"Installed":true,"Locked":false},{"Name":"Museum of London, Barbican","TerminalName":"001043","Lat":51.51782144,"Long":-0.096496865,"Installed":true,"Locked":false},{"Name":"Wood Street, Guildhall","TerminalName":"001063","Lat":51.51700801,"Long":-0.09388536,"Installed":true,"Locked":false},{"Name":"Emperor's Gate, South Kensington","TerminalName":"001116","Lat":51.49536226,"Long":-0.185296516,"Installed":true,"Locked":false},{"Name":"Golden Square, Soho","TerminalName":"003451","Lat":51.5118973,"Long":-0.137043852,"Installed":true,"Locked":false},{"Name":"Tower Gardens , Tower","TerminalName":"001071","Lat":51.50950627,"Long":-0.075459482,"Installed":true,"Locked":false},{"Name":"Eversholt Street , Camden Town","TerminalName":"001005","Lat":51.53300545,"Long":-0.136792671,"Installed":true,"Locked":false},{"Name":"Bethnal Green Road, Shoreditch","TerminalName":"000973","Lat":51.52364804,"Long":-0.074754872,"Installed":true,"Locked":false},{"Name":"Derry Street, Kensington","TerminalName":"003436","Lat":51.50136494,"Long":-0.191462381,"Installed":true,"Locked":false},{"Name":"Wapping High Street, Wapping","TerminalName":"001039","Lat":51.504904,"Long":-0.06797,"Installed":true,"Locked":false},{"Name":"Clerkenwell Green, Clerkenwell","TerminalName":"001053","Lat":51.52326004,"Long":-0.104708922,"Installed":true,"Locked":false},{"Name":"Queen Victoria Street, St. Paul's","TerminalName":"001048","Lat":51.51196176,"Long":-0.097441687,"Installed":true,"Locked":false},{"Name":"Bourne Street, Belgravia","TerminalName":"001119","Lat":51.49087475,"Long":-0.153319609,"Installed":true,"Locked":false},{"Name":"Green Street, Mayfair","TerminalName":"003464","Lat":51.51227622,"Long":-0.157436972,"Installed":true,"Locked":false},{"Name":"Lambeth Road, Vauxhall","TerminalName":"001078","Lat":51.49488108,"Long":-0.117974901,"Installed":true,"Locked":false},{"Name":"Finsbury Square , Moorgate","TerminalName":"001056","Lat":51.52096262,"Long":-0.085634242,"Installed":true,"Locked":false},{"Name":"Chapel Place, Marylebone","TerminalName":"001003","Lat":51.51530805,"Long":-0.147203711,"Installed":true,"Locked":false},{"Name":"West Cromwell Road, Earl's Court","TerminalName":"001001","Lat":51.49372451,"Long":-0.198286569,"Installed":true,"Locked":false},{"Name":"Pont Street, Knightsbridge","TerminalName":"001114","Lat":51.4968865,"Long":-0.161203828,"Installed":true,"Locked":false},{"Name":"Kennington Cross, Kennington","TerminalName":"001093","Lat":51.48894022,"Long":-0.111435796,"Installed":true,"Locked":false},{"Name":"Ilchester Place, Kensington","TerminalName":"001115","Lat":51.50074359,"Long":-0.202759212,"Installed":true,"Locked":false},{"Name":"Vauxhall Bridge , Pimlico","TerminalName":"001046","Lat":51.48836528,"Long":-0.129361842,"Installed":true,"Locked":false},{"Name":"Portugal Street, Holborn","TerminalName":"003456","Lat":51.51494305,"Long":-0.11614642,"Installed":true,"Locked":false},{"Name":"Tachbrook Street, Victoria","TerminalName":"000965","Lat":51.49211134,"Long":-0.138364847,"Installed":true,"Locked":false},{"Name":"Kennington Road Post Office, Oval","TerminalName":"001073","Lat":51.48478899,"Long":-0.110683213,"Installed":true,"Locked":false},{"Name":"Holy Trinity Brompton, Knightsbridge","TerminalName":"001002","Lat":51.49705603,"Long":-0.168917077,"Installed":true,"Locked":false},{"Name":"Chepstow Villas, Notting Hill","TerminalName":"001120","Lat":51.51213691,"Long":-0.201554966,"Installed":true,"Locked":false},{"Name":"Hampton Street, Walworth","TerminalName":"001118","Lat":51.49217002,"Long":-0.101536865,"Installed":true,"Locked":false},{"Name":"Bayswater Road, Hyde Park","TerminalName":"001096","Lat":51.51183419,"Long":-0.174292825,"Installed":true,"Locked":false},{"Name":"Waterloo Station 3, Waterloo","TerminalName":"001072","Lat":51.50379168,"Long":-0.11282408,"Installed":true,"Locked":false},{"Name":"Lexham Gardens, Kensington","TerminalName":"001121","Lat":51.49586666,"Long":-0.191933711,"Installed":true,"Locked":false},{"Name":"New Kent Road, Borough","TerminalName":"000966","Lat":51.49443626,"Long":-0.092921165,"Installed":true,"Locked":false},{"Name":"Wright's Lane, Kensington","TerminalName":"001094","Lat":51.50039792,"Long":-0.193068385,"Installed":true,"Locked":false},{"Name":"Trebovir Road, Earl's Court","TerminalName":"001113","Lat":51.49085368,"Long":-0.196170309,"Installed":true,"Locked":false},{"Name":"Great Marlborough Street, Soho","TerminalName":"001125","Lat":51.51461995,"Long":-0.137841333,"Installed":true,"Locked":false},{"Name":"Waterloo Place, St. James's","TerminalName":"003458","Lat":51.50663341,"Long":-0.131773845,"Installed":true,"Locked":false},{"Name":"Guildhouse Street, Victoria","TerminalName":"003478","Lat":51.49234577,"Long":-0.141334487,"Installed":true,"Locked":false},{"Name":"Southampton Place, Holborn","TerminalName":"001123","Lat":51.51760685,"Long":-0.121328408,"Installed":true,"Locked":false},{"Name":"Sloane Avenue, Knightsbridge","TerminalName":"003461","Lat":51.4931848,"Long":-0.167894973,"Installed":true,"Locked":false},{"Name":"Cleveland Gardens, Bayswater","TerminalName":"001178","Lat":51.515607,"Long":-0.183118788,"Installed":true,"Locked":false},{"Name":"Orsett Terrace, Bayswater","TerminalName":"002585","Lat":51.517932,"Long":-0.183716959,"Installed":true,"Locked":false},{"Name":"Seville Street, Knightsbridge","TerminalName":"001177","Lat":51.50185512,"Long":-0.159237081,"Installed":true,"Locked":false},{"Name":"Eccleston Place, Victoria","TerminalName":"003465","Lat":51.49395092,"Long":-0.147624377,"Installed":true,"Locked":false},{"Name":"Argyll Road, Kensington","TerminalName":"003463","Lat":51.50040123,"Long":-0.195455928,"Installed":true,"Locked":false},{"Name":"Porchester Place, Paddington","TerminalName":"003477","Lat":51.51474612,"Long":-0.165164288,"Installed":true,"Locked":false},{"Name":"Hardwick Street, Clerkenwell","TerminalName":"001057","Lat":51.52784273,"Long":-0.108068155,"Installed":true,"Locked":false},{"Name":"Collingham Gardens, Earl's Court","TerminalName":"003459","Lat":51.4916156,"Long":-0.186753859,"Installed":true,"Locked":false},{"Name":"Sumner Place, South Kensington","TerminalName":"001124","Lat":51.49121192,"Long":-0.173715911,"Installed":true,"Locked":false},{"Name":"Waterloo Roundabout, Waterloo ","TerminalName":"001176","Lat":51.50486,"Long":-0.113001,"Installed":true,"Locked":false},{"Name":"Strand, Strand","TerminalName":"001100","Lat":51.512529,"Long":-0.115163,"Installed":true,"Locked":false},{"Name":"Appold Street, Liverpool Street","TerminalName":"000997","Lat":51.52174384,"Long":-0.0811189,"Installed":true,"Locked":false},{"Name":"Gloucester Terrace, Bayswater","TerminalName":"001173","Lat":51.51791921,"Long":-0.188098863,"Installed":true,"Locked":false},{"Name":"Ashley Place, Victoria","TerminalName":"001122","Lat":51.49616092,"Long":-0.140947636,"Installed":true,"Locked":false},{"Name":"Warwick Square, Pimlico","TerminalName":"003460","Lat":51.48985626,"Long":-0.141923621,"Installed":true,"Locked":false},{"Name":"North Audley Street, Mayfair","TerminalName":"001126","Lat":51.5129118,"Long":-0.153645496,"Installed":true,"Locked":false},{"Name":"Belgrave Square, Belgravia","TerminalName":"003473","Lat":51.49941247,"Long":-0.152317537,"Installed":true,"Locked":false},{"Name":"Bell Street , Marylebone","TerminalName":"001166","Lat":51.52202903,"Long":-0.165842551,"Installed":true,"Locked":false},{"Name":"Portland Place, Marylebone","TerminalName":"001164","Lat":51.52071513,"Long":-0.14521173,"Installed":true,"Locked":false},{"Name":"Alderney Street, Pimlico","TerminalName":"001174","Lat":51.48805753,"Long":-0.140741432,"Installed":true,"Locked":false},{"Name":"South Wharf Road, Paddington","TerminalName":"001167","Lat":51.51733558,"Long":-0.175810943,"Installed":true,"Locked":false},{"Name":"Queen's Gate (South), South Kensington","TerminalName":"001172","Lat":51.49247977,"Long":-0.178433004,"Installed":true,"Locked":false},{"Name":"Nutford Place, Marylebone","TerminalName":"001112","Lat":51.5165179,"Long":-0.164393768,"Installed":true,"Locked":false},{"Name":"Claremont Square, Angel","TerminalName":"001104","Lat":51.53166681,"Long":-0.109914711,"Installed":true,"Locked":false},{"Name":"Rampayne Street, Pimlico","TerminalName":"001106","Lat":51.48997562,"Long":-0.132845681,"Installed":true,"Locked":false},{"Name":"Hyde Park Corner, Hyde Park","TerminalName":"001075","Lat":51.50311799,"Long":-0.153520935,"Installed":true,"Locked":false},{"Name":"Wardour Street, Soho","TerminalName":"001163","Lat":51.51251523,"Long":-0.133201961,"Installed":true,"Locked":false},{"Name":"Bankside Mix, Bankside","TerminalName":"000963","Lat":51.50581776,"Long":-0.100186337,"Installed":true,"Locked":false},{"Name":"Hop Exchange, The Borough","TerminalName":"000960","Lat":51.50462759,"Long":-0.091773776,"Installed":true,"Locked":false},{"Name":"Milroy Walk, South Bank","TerminalName":"000959","Lat":51.50724437,"Long":-0.106237501,"Installed":true,"Locked":false},{"Name":"Union Street, The Borough","TerminalName":"000961","Lat":51.50368837,"Long":-0.098497684,"Installed":true,"Locked":false},{"Name":"Stamford Street, South Bank","TerminalName":"000962","Lat":51.50556905,"Long":-0.111606696,"Installed":true,"Locked":false},{"Name":"Great Tower Street, Monument","TerminalName":"001080","Lat":51.51048489,"Long":-0.082989638,"Installed":true,"Locked":false},{"Name":"LMU Commercial Road, Whitechapel","TerminalName":"001105","Lat":51.51492456,"Long":-0.066078037,"Installed":true,"Locked":false},{"Name":"Dorset Square, Marylebone","TerminalName":"001162","Lat":51.5225965,"Long":-0.161113413,"Installed":true,"Locked":false},{"Name":"Leman Street, Aldgate","TerminalName":"001102","Lat":51.51236389,"Long":-0.06954201,"Installed":true,"Locked":false},{"Name":"West Smithfield Rotunda, Farringdon","TerminalName":"001040","Lat":51.51821864,"Long":-0.100791005,"Installed":true,"Locked":false},{"Name":"Margery Street, Clerkenwell","TerminalName":"003468","Lat":51.52659961,"Long":-0.112432615,"Installed":true,"Locked":false},{"Name":"New Road  2, Whitechapel","TerminalName":"003475","Lat":51.518144,"Long":-0.06275,"Installed":true,"Locked":false},{"Name":"New Road 1 , Whitechapel","TerminalName":"001171","Lat":51.518154,"Long":-0.062697,"Installed":true,"Locked":false},{"Name":"Grosvenor Crescent, Belgravia","TerminalName":"001169","Lat":51.50135267,"Long":-0.153194766,"Installed":true,"Locked":false},{"Name":"Mallory Street, Marylebone","TerminalName":"001175","Lat":51.52505151,"Long":-0.166304359,"Installed":true,"Locked":false},{"Name":"Denyer Street, Knightsbridge","TerminalName":"003454","Lat":51.49358391,"Long":-0.165101392,"Installed":true,"Locked":false},{"Name":"Hinde Street, Marylebone","TerminalName":"003476","Lat":51.51681444,"Long":-0.151926305,"Installed":true,"Locked":false},{"Name":"Cadogan Place, Knightsbridge","TerminalName":"003469","Lat":51.49464523,"Long":-0.158105512,"Installed":true,"Locked":false},{"Name":"Campden Hill Road, Notting Hill","TerminalName":"003487","Lat":51.50658458,"Long":-0.199004026,"Installed":true,"Locked":false},{"Name":"Wellington Arch, Hyde Park","TerminalName":"001109","Lat":51.50274025,"Long":-0.149569201,"Installed":true,"Locked":false},{"Name":"Endsleigh Gardens, Euston","TerminalName":"001079","Lat":51.52683806,"Long":-0.130504336,"Installed":true,"Locked":false},{"Name":"Moorfields, Moorgate","TerminalName":"001092","Lat":51.51906932,"Long":-0.088285377,"Installed":true,"Locked":false},{"Name":"Old Brompton Road, South Kensington","TerminalName":"003479","Lat":51.49094565,"Long":-0.181190899,"Installed":true,"Locked":false},{"Name":"Wormwood Street, Liverpool Street","TerminalName":"002587","Lat":51.51615461,"Long":-0.082422399,"Installed":true,"Locked":false},{"Name":"St. Luke's Church, Chelsea","TerminalName":"003486","Lat":51.48971651,"Long":-0.170194408,"Installed":true,"Locked":false},{"Name":"Bramham Gardens, Earl's Court","TerminalName":"001183","Lat":51.49016361,"Long":-0.19039362,"Installed":true,"Locked":false},{"Name":"Chelsea Green, Chelsea","TerminalName":"001179","Lat":51.49066456,"Long":-0.166485083,"Installed":true,"Locked":false},{"Name":"Horseferry Road, Westminster","TerminalName":"001170","Lat":51.49481649,"Long":-0.13045856,"Installed":true,"Locked":false},{"Name":"Knightsbridge, Hyde Park","TerminalName":"001101","Lat":51.50275704,"Long":-0.155349725,"Installed":true,"Locked":false},{"Name":"Rodney Road , Walworth","TerminalName":"003481","Lat":51.49148474,"Long":-0.090220911,"Installed":true,"Locked":false},{"Name":"Whiteley's, Bayswater","TerminalName":"001150","Lat":51.51476963,"Long":-0.188129731,"Installed":true,"Locked":false},{"Name":"Notting Hill Gate Station, Notting Hill","TerminalName":"001182","Lat":51.50935342,"Long":-0.196422,"Installed":true,"Locked":false},{"Name":"Charles II Street, West End","TerminalName":"003488","Lat":51.50844614,"Long":-0.131961389,"Installed":true,"Locked":false},{"Name":"Great Percy Street, Clerkenwell","TerminalName":"003470","Lat":51.52891573,"Long":-0.115480888,"Installed":true,"Locked":false},{"Name":"St. James's Square, St. James's","TerminalName":"001067","Lat":51.50742485,"Long":-0.134621209,"Installed":true,"Locked":false},{"Name":"Whitehall Place, Strand","TerminalName":"001151","Lat":51.50654321,"Long":-0.123179697,"Installed":true,"Locked":false},{"Name":"Poured Lines, Bankside","TerminalName":"001144","Lat":51.50669284,"Long":-0.103137426,"Installed":true,"Locked":false},{"Name":"Queen's Gate (Central), South Kensington","TerminalName":"001089","Lat":51.49396755,"Long":-0.17873226,"Installed":true,"Locked":false},{"Name":"Carey Street, Holborn","TerminalName":"001139","Lat":51.51501025,"Long":-0.112753217,"Installed":true,"Locked":false},{"Name":"Pall Mall East, West End","TerminalName":"001153","Lat":51.50777049,"Long":-0.130699733,"Installed":true,"Locked":false},{"Name":"Liverpool Road (N1 Centre), Angel","TerminalName":"001081","Lat":51.53450449,"Long":-0.106992706,"Installed":true,"Locked":false},{"Name":"Kennington Road  , Vauxhall","TerminalName":"001154","Lat":51.49571828,"Long":-0.110889274,"Installed":true,"Locked":false},{"Name":"Fashion Street, Whitechapel","TerminalName":"003483","Lat":51.51838043,"Long":-0.073438925,"Installed":true,"Locked":false},{"Name":"Vaughan Way, Wapping","TerminalName":"003467","Lat":51.5084448,"Long":-0.067176443,"Installed":true,"Locked":false},{"Name":"Frampton Street, Paddington","TerminalName":"001099","Lat":51.5233534,"Long":-0.175116099,"Installed":true,"Locked":false},{"Name":"Warren Street Station, Euston","TerminalName":"001090","Lat":51.52443845,"Long":-0.138019439,"Installed":true,"Locked":false},{"Name":"Colombo Street, Southwark","TerminalName":"003472","Lat":51.50545935,"Long":-0.10569204,"Installed":true,"Locked":false},{"Name":"Beaumont Street, Marylebone","TerminalName":"003482","Lat":51.52200801,"Long":-0.151359288,"Installed":true,"Locked":false},{"Name":"Gloucester Street, Pimlico","TerminalName":"001103","Lat":51.49096258,"Long":-0.139625122,"Installed":true,"Locked":false},{"Name":"Earnshaw Street , Covent Garden","TerminalName":"001145","Lat":51.51611887,"Long":-0.128585022,"Installed":true,"Locked":false},{"Name":"Grosvenor Road, Pimlico","TerminalName":"001140","Lat":51.4853572,"Long":-0.142207481,"Installed":true,"Locked":false},{"Name":"Berry Street, Clerkenwell","TerminalName":"001159","Lat":51.52285301,"Long":-0.099994052,"Installed":true,"Locked":false},{"Name":"St. John's Wood Church, Regent's Park","TerminalName":"001091","Lat":51.530052,"Long":-0.168314,"Installed":true,"Locked":false},{"Name":"Triangle Car Park, Hyde Park","TerminalName":"001088","Lat":51.50645179,"Long":-0.170279555,"Installed":true,"Locked":false},{"Name":"Harper Road, Borough","TerminalName":"001137","Lat":51.49859784,"Long":-0.096191134,"Installed":true,"Locked":false},{"Name":"Royal Avenue 1, Chelsea","TerminalName":"003440","Lat":51.489932,"Long":-0.162727,"Installed":true,"Locked":false},{"Name":"Brushfield Street, Liverpool Street","TerminalName":"001161","Lat":51.518908,"Long":-0.079249,"Installed":true,"Locked":false},{"Name":"Jubilee Gardens, South Bank","TerminalName":"001111","Lat":51.5046364,"Long":-0.116542278,"Installed":true,"Locked":false},{"Name":"Shoreditch Park, Hoxton","TerminalName":"001051","Lat":51.53404294,"Long":-0.086379717,"Installed":true,"Locked":false},{"Name":"Chadwell Street, Angel","TerminalName":"003471","Lat":51.53051587,"Long":-0.106408455,"Installed":true,"Locked":false},{"Name":"Clifton Road, Maida Vale","TerminalName":"001147","Lat":51.52557531,"Long":-0.179592915,"Installed":true,"Locked":false},{"Name":"Houghton Street, Strand","TerminalName":"003484","Lat":51.51362054,"Long":-0.116764211,"Installed":true,"Locked":false},{"Name":"Westminster University, Marylebone","TerminalName":"001194","Lat":51.52248185,"Long":-0.154907218,"Installed":true,"Locked":false},{"Name":"Kensington Gore, Knightsbridge","TerminalName":"001193","Lat":51.50143293,"Long":-0.178656971,"Installed":true,"Locked":false},{"Name":"Embankment (Horse Guards), Westminster","TerminalName":"001180","Lat":51.50494561,"Long":-0.123247648,"Installed":true,"Locked":false},{"Name":"Broadwick Street, Soho","TerminalName":"003489","Lat":51.5136846,"Long":-0.135580879,"Installed":true,"Locked":false},{"Name":"Princes Square, Bayswater","TerminalName":"003491","Lat":51.5134891,"Long":-0.191351186,"Installed":true,"Locked":false},{"Name":"LSBU (Borough Road), Elephant \u0026 Castle","TerminalName":"001095","Lat":51.49874469,"Long":-0.103132904,"Installed":true,"Locked":false},{"Name":"St. Mary Axe, Aldgate","TerminalName":"001184","Lat":51.51422502,"Long":-0.080660083,"Installed":true,"Locked":false},{"Name":"Tysoe Street, Clerkenwell","TerminalName":"001146","Lat":51.52644342,"Long":-0.109256828,"Installed":true,"Locked":false},{"Name":"Southwick Street, Paddington","TerminalName":"003490","Lat":51.51595344,"Long":-0.169249375,"Installed":true,"Locked":false},{"Name":"Queen's Gate (North), Kensington","TerminalName":"001204","Lat":51.50102668,"Long":-0.180246101,"Installed":true,"Locked":false},{"Name":"Regency Street, Westminster","TerminalName":"001155","Lat":51.49206037,"Long":-0.132224622,"Installed":true,"Locked":false},{"Name":"Belgrave Road, Victoria","TerminalName":"001087","Lat":51.49320445,"Long":-0.144132875,"Installed":true,"Locked":false},{"Name":"Empire Square, The Borough","TerminalName":"001209","Lat":51.50082346,"Long":-0.089740764,"Installed":true,"Locked":false},{"Name":"Kennington Lane Rail Bridge, Vauxhall","TerminalName":"001190","Lat":51.4863434,"Long":-0.122492418,"Installed":true,"Locked":false},{"Name":"London Zoo, Regents Park","TerminalName":"001136","Lat":51.53583617,"Long":-0.156285395,"Installed":true,"Locked":false},{"Name":"Baylis Road, Waterloo","TerminalName":"001133","Lat":51.50144456,"Long":-0.110699309,"Installed":true,"Locked":false},{"Name":"Belvedere Road, South Bank","TerminalName":"001186","Lat":51.50613324,"Long":-0.114686385,"Installed":true,"Locked":false},{"Name":"Warwick Road, Olympia","TerminalName":"001134","Lat":51.49671237,"Long":-0.20528437,"Installed":true,"Locked":false},{"Name":"Barbican Centre, Barbican","TerminalName":"001191","Lat":51.52004497,"Long":-0.092176447,"Installed":true,"Locked":false},{"Name":"Lower Thames Street, Monument","TerminalName":"001098","Lat":51.50930161,"Long":-0.084985356,"Installed":true,"Locked":false},{"Name":"Kensington Church Street, Kensington","TerminalName":"001143","Lat":51.50315739,"Long":-0.191496313,"Installed":true,"Locked":false},{"Name":"Tooley Street, Bermondsey","TerminalName":"001142","Lat":51.5034938,"Long":-0.07962099,"Installed":true,"Locked":false},{"Name":"North Wharf Road, Paddington","TerminalName":"001108","Lat":51.51862243,"Long":-0.176645823,"Installed":true,"Locked":false},{"Name":"Royal Avenue 2, Chelsea","TerminalName":"003462","Lat":51.490083,"Long":-0.162418,"Installed":true,"Locked":false},{"Name":"Smith Square, Westminster","TerminalName":"003480","Lat":51.49580589,"Long":-0.127575233,"Installed":true,"Locked":false},{"Name":"Royal London Hospital, Whitechapel","TerminalName":"001077","Lat":51.51906446,"Long":-0.059642081,"Installed":true,"Locked":false},{"Name":"Lambeth North Station, Waterloo","TerminalName":"001117","Lat":51.49914063,"Long":-0.112031483,"Installed":true,"Locked":false},{"Name":"St. John's Wood Road, St. John's Wood","TerminalName":"001187","Lat":51.5272947,"Long":-0.174653609,"Installed":true,"Locked":false},{"Name":"Bedford Way, Bloomsbury","TerminalName":"001156","Lat":51.52367314,"Long":-0.128377673,"Installed":true,"Locked":false},{"Name":"Elizabeth Bridge, Victoria","TerminalName":"001138","Lat":51.49236962,"Long":-0.147478734,"Installed":true,"Locked":false},{"Name":"South Audley Street, Mayfair","TerminalName":"003493","Lat":51.50923022,"Long":-0.151296092,"Installed":true,"Locked":false},{"Name":"Winsland Street, Paddington","TerminalName":"003496","Lat":51.51678023,"Long":-0.175488803,"Installed":true,"Locked":false},{"Name":"Claverton Street, Pimlico","TerminalName":"001135","Lat":51.48483991,"Long":-0.138089062,"Installed":true,"Locked":false},{"Name":"Montpelier Street, Knightsbridge","TerminalName":"001206","Lat":51.49888404,"Long":-0.165471605,"Installed":true,"Locked":false},{"Name":"Kensington Olympia Station, Olympia","TerminalName":"001214","Lat":51.49815779,"Long":-0.209494128,"Installed":true,"Locked":false},{"Name":"St. George's Square, Pimlico","TerminalName":"001195","Lat":51.488226,"Long":-0.135635511,"Installed":true,"Locked":false},{"Name":"Swan Street, The Borough","TerminalName":"001216","Lat":51.50029631,"Long":-0.092762704,"Installed":true,"Locked":false},{"Name":"Knaresborough Place, Earl's Court","TerminalName":"200069","Lat":51.49363156,"Long":-0.190603326,"Installed":true,"Locked":false},{"Name":"Geraldine Street, Elephant \u0026 Castle","TerminalName":"003498","Lat":51.49612799,"Long":-0.106000855,"Installed":true,"Locked":false},{"Name":"Curlew Street, Shad Thames","TerminalName":"001213","Lat":51.50227992,"Long":-0.074189225,"Installed":true,"Locked":false},{"Name":"Vincent Square, Westminster","TerminalName":"001196","Lat":51.49398524,"Long":-0.136928582,"Installed":true,"Locked":false},{"Name":"Serpentine Car Park, Hyde Park","TerminalName":"001217","Lat":51.50501351,"Long":-0.172729559,"Installed":true,"Locked":false},{"Name":"Marylebone Lane, Marylebone","TerminalName":"001152","Lat":51.51475963,"Long":-0.148105415,"Installed":true,"Locked":false},{"Name":"Albert Gate, Hyde Park","TerminalName":"001132","Lat":51.50295379,"Long":-0.158456089,"Installed":true,"Locked":false},{"Name":"Cumberland Gate, Hyde Park","TerminalName":"001149","Lat":51.51211869,"Long":-0.16209757,"Installed":true,"Locked":false},{"Name":"Kennington Lane Tesco, Vauxhall","TerminalName":"001168","Lat":51.48677988,"Long":-0.115853961,"Installed":true,"Locked":false},{"Name":"Rathbone Street, Fitzrovia ","TerminalName":"003497","Lat":51.51816295,"Long":-0.135025698,"Installed":true,"Locked":false},{"Name":"Black Lion Gate, Kensington Gardens","TerminalName":"001157","Lat":51.50990837,"Long":-0.187842717,"Installed":true,"Locked":false},{"Name":"Long Lane , Bermondsey","TerminalName":"001189","Lat":51.49907558,"Long":-0.085666316,"Installed":true,"Locked":false},{"Name":"Embankment (Savoy), Strand","TerminalName":"001192","Lat":51.50963123,"Long":-0.119047563,"Installed":true,"Locked":false},{"Name":"Black Prince Road, Vauxhall","TerminalName":"001205","Lat":51.4908679,"Long":-0.116911864,"Installed":true,"Locked":false},{"Name":"Foley Street, Fitzrovia","TerminalName":"003494","Lat":51.51918144,"Long":-0.140485596,"Installed":true,"Locked":false},{"Name":"Grove End Road, St. John's Wood","TerminalName":"001130","Lat":51.53088935,"Long":-0.176770502,"Installed":true,"Locked":false},{"Name":"Wells Street, Fitzrovia ","TerminalName":"003495","Lat":51.51734403,"Long":-0.138072691,"Installed":true,"Locked":false},{"Name":"Tyers Gate, Bermondsey","TerminalName":"003485","Lat":51.50088934,"Long":-0.083159352,"Installed":true,"Locked":false},{"Name":"The Tennis Courts, Regent's Park","TerminalName":"001199","Lat":51.52536703,"Long":-0.153463612,"Installed":true,"Locked":false},{"Name":"Cardinal Place, Victoria","TerminalName":"000968","Lat":51.49768448,"Long":-0.141943703,"Installed":true,"Locked":false},{"Name":"Dickens Square, Borough","TerminalName":"001208","Lat":51.49679128,"Long":-0.093913472,"Installed":true,"Locked":false},{"Name":"Sackville Street, Mayfair","TerminalName":"001197","Lat":51.51004801,"Long":-0.138846453,"Installed":true,"Locked":false},{"Name":"Baldwin Street, St. Luke's","TerminalName":"003500","Lat":51.52702563,"Long":-0.088542771,"Installed":true,"Locked":false},{"Name":"Queen Mother Sports Centre, Victoria","TerminalName":"001148","Lat":51.49357351,"Long":-0.139956043,"Installed":true,"Locked":false},{"Name":"Bermondsey Street, Bermondsey","TerminalName":"002637","Lat":51.49785559,"Long":-0.081608045,"Installed":true,"Locked":false},{"Name":"Palissy Street, Shoreditch","TerminalName":"003502","Lat":51.526293,"Long":-0.073955,"Installed":true,"Locked":false},{"Name":"Clifton Street, Shoreditch","TerminalName":"003501","Lat":51.523196,"Long":-0.083067,"Installed":true,"Locked":false},{"Name":"Ontario Street, Elephant \u0026 Castle","TerminalName":"001200","Lat":51.49652013,"Long":-0.101384068,"Installed":true,"Locked":false},{"Name":"St. Martin's Street, West End","TerminalName":"001158","Lat":51.50908747,"Long":-0.129697889,"Installed":true,"Locked":false},{"Name":"Graham Street, Angel","TerminalName":"001131","Lat":51.53266186,"Long":-0.099981142,"Installed":true,"Locked":false},{"Name":"New North Road 1, Hoxton","TerminalName":"001128","Lat":51.53114,"Long":-0.086016,"Installed":true,"Locked":false},{"Name":"New North Road 2, Hoxton","TerminalName":"002641","Lat":51.53095,"Long":-0.085603,"Installed":true,"Locked":false},{"Name":"Prince Albert Road, Regent's Park","TerminalName":"002636","Lat":51.53589283,"Long":-0.160854428,"Installed":true,"Locked":false},{"Name":"Eastbourne Mews, Paddington","TerminalName":"001203","Lat":51.51641749,"Long":-0.179135079,"Installed":true,"Locked":false},{"Name":"Bunhill Row, Moorgate","TerminalName":"001211","Lat":51.52085887,"Long":-0.089887855,"Installed":true,"Locked":false},{"Name":"Nevern Place, Earl's Court","TerminalName":"001210","Lat":51.49334336,"Long":-0.194757949,"Installed":true,"Locked":false},{"Name":"Palace Gardens Terrace, Notting Hill","TerminalName":"002633","Lat":51.50860544,"Long":-0.193764092,"Installed":true,"Locked":false},{"Name":"Concert Hall Approach 1, South Bank","TerminalName":"002635","Lat":51.505044,"Long":-0.115851,"Installed":true,"Locked":false},{"Name":"Tavistock Street, Covent Garden","TerminalName":"001207","Lat":51.51196803,"Long":-0.120718759,"Installed":true,"Locked":false},{"Name":"Concert Hall Approach 2, South Bank","TerminalName":"001212","Lat":51.504942,"Long":-0.115533,"Installed":true,"Locked":false},{"Name":"Pembridge Villas, Notting Hill","TerminalName":"002589","Lat":51.51108452,"Long":-0.197524944,"Installed":true,"Locked":false},{"Name":"Wellington Street , Strand","TerminalName":"001202","Lat":51.51175646,"Long":-0.119643424,"Installed":true,"Locked":false},{"Name":"Risinghill Street, Angel","TerminalName":"001127","Lat":51.5333196,"Long":-0.111781191,"Installed":true,"Locked":false},{"Name":"Bank of England Museum, Bank","TerminalName":"001201","Lat":51.51444134,"Long":-0.087587447,"Installed":true,"Locked":false},{"Name":"Craven Street, Strand","TerminalName":"001160","Lat":51.50810309,"Long":-0.12602103,"Installed":true,"Locked":false},{"Name":"London Zoo Car Park, Regent's Park","TerminalName":"001188","Lat":51.53692216,"Long":-0.150181444,"Installed":true,"Locked":false},{"Name":"Goswell Road (City Uni), Finsbury","TerminalName":"001222","Lat":51.528246,"Long":-0.10102611,"Installed":true,"Locked":false},{"Name":"Flood Street, Chelsea","TerminalName":"001218","Lat":51.48802358,"Long":-0.166878535,"Installed":true,"Locked":false},{"Name":"Lower Marsh, Waterloo","TerminalName":"001219","Lat":51.50013942,"Long":-0.113936001,"Installed":true,"Locked":false},{"Name":"Grosvenor Square, Mayfair","TerminalName":"010627","Lat":51.51217033,"Long":-0.150481272,"Installed":true,"Locked":false},{"Name":"St. George Street, Mayfair","TerminalName":"001221","Lat":51.51196,"Long":-0.142783033,"Installed":true,"Locked":false},{"Name":"Queen's Gate, Kensington Gardens","TerminalName":"001231","Lat":51.5017154373867,"Long":-0.1798541843891,"Installed":true,"Locked":false},{"Name":"Macclesfield Rd, St Lukes","TerminalName":"001226","Lat":51.529423,"Long":-0.097122,"Installed":true,"Locked":false},{"Name":"Vauxhall Street, Vauxhall","TerminalName":"001224","Lat":51.486965,"Long":-0.116625,"Installed":true,"Locked":false},{"Name":"Greycoat Street , Westminster","TerminalName":"010623","Lat":51.49459148,"Long":-0.134234258,"Installed":true,"Locked":false},{"Name":"Northumberland Avenue, Strand","TerminalName":"001097","Lat":51.506767,"Long":-0.123702,"Installed":true,"Locked":false},{"Name":"Oval Way, Lambeth","TerminalName":"002694","Lat":51.486575,"Long":-0.117286,"Installed":true,"Locked":false},{"Name":"South Kensington Station, South Kensington","TerminalName":"002685","Lat":51.494412,"Long":-0.173881,"Installed":true,"Locked":false},{"Name":"Howland Street, Fitzrovia","TerminalName":"002691","Lat":51.520994,"Long":-0.139016,"Installed":true,"Locked":false},{"Name":"High Holborn , Covent Garden","TerminalName":"001229","Lat":51.51643491,"Long":-0.124332175,"Installed":true,"Locked":false},{"Name":"Butler Place, Westminster","TerminalName":"002662","Lat":51.49782999,"Long":-0.135440826,"Installed":true,"Locked":false},{"Name":"Howick Place, Westminster","TerminalName":"002666","Lat":51.49675303,"Long":-0.138733562,"Installed":true,"Locked":false},{"Name":"Waterloo Station 2, Waterloo","TerminalName":"002692","Lat":51.50391972,"Long":-0.11342628,"Installed":true,"Locked":false},{"Name":"Royal College Street, Camden Town","TerminalName":"002686","Lat":51.536264,"Long":-0.133952,"Installed":true,"Locked":false},{"Name":"Lord's, St. John's Wood","TerminalName":"002665","Lat":51.5291212008901,"Long":-0.171185284853,"Installed":true,"Locked":false},{"Name":"Alfred Place, Bloomsbury","TerminalName":"003507","Lat":51.519656,"Long":-0.132339,"Installed":true,"Locked":false},{"Name":"City Road, Angel","TerminalName":"002690","Lat":51.530344,"Long":-0.100168,"Installed":true,"Locked":false},{"Name":"Millennium Hotel, Mayfair","TerminalName":"001230","Lat":51.5109192966489,"Long":-0.1511263847351,"Installed":true,"Locked":false},{"Name":"Harrowby Street, Marylebone","TerminalName":"002680","Lat":51.5173721,"Long":-0.1642075,"Installed":true,"Locked":false},{"Name":"Harriet Street, Knightsbridge","TerminalName":"002681","Lat":51.50024195,"Long":-0.15934065,"Installed":true,"Locked":false},{"Name":"Paddington Green, Paddington","TerminalName":"002670","Lat":51.520205,"Long":-0.174593,"Installed":true,"Locked":false},{"Name":"King Edward Walk, Waterloo","TerminalName":"002639","Lat":51.49775,"Long":-0.10988,"Installed":true,"Locked":false},{"Name":"Sardinia Street, Holborn","TerminalName":"002649","Lat":51.515208,"Long":-0.117863,"Installed":true,"Locked":false},{"Name":"Prince Consort Road, Knightsbridge","TerminalName":"003499","Lat":51.49980661,"Long":-0.176415994,"Installed":true,"Locked":false},{"Name":"Waterloo Station 1, Waterloo","TerminalName":"002696","Lat":51.50402793,"Long":-0.11386435,"Installed":true,"Locked":false},{"Name":"Kensington Town Hall, Kensington","TerminalName":"010632","Lat":51.50194596,"Long":-0.194392952,"Installed":true,"Locked":false},{"Name":"Millbank House, Pimlico","TerminalName":"002683","Lat":51.49188409,"Long":-0.125674815,"Installed":true,"Locked":false},{"Name":"Waterloo Bridge, South Bank","TerminalName":"002648","Lat":51.50535447,"Long":-0.113656543,"Installed":true,"Locked":false},{"Name":"Natural History Museum, South Kensington","TerminalName":"002677","Lat":51.49559291,"Long":-0.179077626,"Installed":true,"Locked":false},{"Name":"Turquoise Island, Notting Hill","TerminalName":"002682","Lat":51.51431171,"Long":-0.200838199,"Installed":true,"Locked":false},{"Name":"Stanhope Gate, Mayfair","TerminalName":"003506","Lat":51.50686435,"Long":-0.150666888,"Installed":true,"Locked":false},{"Name":"Charlotte Street, Fitzrovia","TerminalName":"002669","Lat":51.51953043,"Long":-0.13577731,"Installed":true,"Locked":false},{"Name":"Farm Street, Mayfair","TerminalName":"002678","Lat":51.50935171,"Long":-0.14744969,"Installed":true,"Locked":false},{"Name":"Frith Street, Soho","TerminalName":"002660","Lat":51.51310333,"Long":-0.13121385,"Installed":true,"Locked":false},{"Name":"Marloes Road, Kensington","TerminalName":"003505","Lat":51.496481,"Long":-0.192404,"Installed":true,"Locked":false},{"Name":"Moor Street, Soho","TerminalName":"003504","Lat":51.51352755,"Long":-0.130110822,"Installed":true,"Locked":false},{"Name":"Fire Brigade Pier, Vauxhall","TerminalName":"002703","Lat":51.49369988,"Long":-0.121394101,"Installed":true,"Locked":false},{"Name":"Southampton Street, Strand","TerminalName":"001228","Lat":51.51070161,"Long":-0.121723604,"Installed":true,"Locked":false},{"Name":"Upper Grosvenor Street, Mayfair","TerminalName":"010621","Lat":51.51013066,"Long":-0.155757901,"Installed":true,"Locked":false},{"Name":"Buxton Street 1, Bangla Town","TerminalName":"001223","Lat":51.521776,"Long":-0.068856,"Installed":true,"Locked":false},{"Name":"Clifford Street, Mayfair","TerminalName":"002688","Lat":51.51066202,"Long":-0.142345694,"Installed":true,"Locked":false},{"Name":"Imperial College, Knightsbridge","TerminalName":"001220","Lat":51.49942855,"Long":-0.179702476,"Installed":true,"Locked":false},{"Name":"Snow Hill, Farringdon","TerminalName":"002699","Lat":51.51733427,"Long":-0.103604248,"Installed":true,"Locked":false},{"Name":"Aberdeen Place, St. John's Wood","TerminalName":"002698","Lat":51.524826,"Long":-0.176268,"Installed":true,"Locked":false},{"Name":"Cadogan Gardens, Sloane Square","TerminalName":"002695","Lat":51.492462,"Long":-0.159919,"Installed":true,"Locked":false},{"Name":"Shouldham Street, Marylebone","TerminalName":"002693","Lat":51.51809,"Long":-0.163609,"Installed":true,"Locked":false},{"Name":"Devonshire Terrace, Bayswater","TerminalName":"001227","Lat":51.51348,"Long":-0.17977,"Installed":true,"Locked":false},{"Name":"Holland Park, Kensington","TerminalName":"010631","Lat":51.502319,"Long":-0.200742,"Installed":true,"Locked":false},{"Name":"Brick Lane Market, Shoreditch","TerminalName":"002687","Lat":51.52261762,"Long":-0.071653961,"Installed":true,"Locked":false},{"Name":"George Street, Marylebone","TerminalName":"001225","Lat":51.517703,"Long":-0.154106,"Installed":true,"Locked":false},{"Name":"Columbia Road, Weavers","TerminalName":"002701","Lat":51.528187,"Long":-0.075375,"Installed":true,"Locked":false},{"Name":"Penfold Street, Marylebone","TerminalName":"010625","Lat":51.52289229,"Long":-0.171681991,"Installed":true,"Locked":false},{"Name":"George Place Mews, Marylebone","TerminalName":"010630","Lat":51.51689296,"Long":-0.158249929,"Installed":true,"Locked":false},{"Name":"Palace Gate, Kensington Gardens","TerminalName":"001110","Lat":51.50204238,"Long":-0.184400221,"Installed":true,"Locked":false},{"Name":"Gloucester Road Station, South Kensington","TerminalName":"001107","Lat":51.49418566,"Long":-0.18267094,"Installed":true,"Locked":false},{"Name":"Speakers' Corner 2, Hyde Park","TerminalName":"010633","Lat":51.512303,"Long":-0.159988,"Installed":true,"Locked":false},{"Name":"Speakers' Corner 1, Hyde Park","TerminalName":"000977","Lat":51.51222,"Long":-0.160785,"Installed":true,"Locked":false},{"Name":"Paddington Green Police Station, Paddington","TerminalName":"001129","Lat":51.51994326,"Long":-0.170704337,"Installed":true,"Locked":false},{"Name":"Strata, Southwark","TerminalName":"010624","Lat":51.493146,"Long":-0.099828,"Installed":true,"Locked":false},{"Name":"Edgware Road Station, Paddington","TerminalName":"001058","Lat":51.519968,"Long":-0.169774,"Installed":true,"Locked":false},{"Name":"Walworth Road, Southwark","TerminalName":"010629","Lat":51.49337264,"Long":-0.09968067,"Installed":true,"Locked":false},{"Name":"Cleaver Street, Kennington","TerminalName":"010628","Lat":51.488105,"Long":-0.110121,"Installed":true,"Locked":false},{"Name":"Chelsea Bridge, Pimlico","TerminalName":"022160","Lat":51.485821,"Long":-0.149004,"Installed":true,"Locked":false},{"Name":"Southwark Station 1, Southwark","TerminalName":"022162","Lat":51.504043,"Long":-0.105312,"Installed":true,"Locked":false},{"Name":"Southwark Station 2, Southwark","TerminalName":"022163","Lat":51.504044,"Long":-0.104778,"Installed":true,"Locked":false},{"Name":"Eaton Square (South), Belgravia","TerminalName":"022164","Lat":51.49456127,"Long":-0.15393398,"Installed":true,"Locked":false},{"Name":"Ebury Bridge, Pimlico","TerminalName":"022159","Lat":51.490491,"Long":-0.149186,"Installed":true,"Locked":false},{"Name":"Harrington Square 2, Camden Town","TerminalName":"022181","Lat":51.533379,"Long":-0.139159,"Installed":true,"Locked":false},{"Name":"Vincent Street, Pimlico","TerminalName":"022161","Lat":51.493072,"Long":-0.129925,"Installed":true,"Locked":false},{"Name":"Cheapside, Bank","TerminalName":"022180","Lat":51.51397065,"Long":-0.09294031,"Installed":true,"Locked":false},{"Name":"Exhibition Road, South Kensington","TerminalName":"022179","Lat":51.499917,"Long":-0.174554,"Installed":true,"Locked":false},{"Name":"South Parade, Chelsea","TerminalName":"022182","Lat":51.48902,"Long":-0.17524,"Installed":true,"Locked":false},{"Name":"Crinan Street, King's Cross","TerminalName":"022183","Lat":51.534474,"Long":-0.122203,"Installed":true,"Locked":false},{"Name":"Exhibition Road Museums, Knightsbridge","TerminalName":"022158","Lat":51.496957,"Long":-0.173894,"Installed":true,"Locked":false},{"Name":"Wren Street, Holborn","TerminalName":"022169","Lat":51.524564,"Long":-0.116279,"Installed":true,"Locked":false},{"Name":"Kennington Station, Kennington","TerminalName":"022170","Lat":51.488852,"Long":-0.105593,"Installed":true,"Locked":false},{"Name":"Red Lion Street, Holborn","TerminalName":"022171","Lat":51.51824,"Long":-0.11655,"Installed":true,"Locked":false},{"Name":"Vauxhall Walk, Vauxhall","TerminalName":"200056","Lat":51.488124,"Long":-0.120903,"Installed":true,"Locked":false},{"Name":"Killick Street, Kings Cross","TerminalName":"200053","Lat":51.5338,"Long":-0.118677,"Installed":true,"Locked":false},{"Name":"Kennington Oval, Oval","TerminalName":"200032","Lat":51.483145,"Long":-0.113134,"Installed":true,"Locked":false},{"Name":"Sail Street, Vauxhall","TerminalName":"200039","Lat":51.495656,"Long":-0.114605,"Installed":true,"Locked":false},{"Name":"Walmer Road, Notting Hill","TerminalName":"200035","Lat":51.510101,"Long":-0.211358,"Installed":true,"Locked":false},{"Name":"Philpot Street, Whitechapel","TerminalName":"200033","Lat":51.515256,"Long":-0.058641,"Installed":true,"Locked":false},{"Name":"Bethnal Green Gardens, Bethnal Green","TerminalName":"200047","Lat":51.52568,"Long":-0.055312,"Installed":true,"Locked":false},{"Name":"Cheshire Street, Bethnal Green","TerminalName":"200003","Lat":51.52388,"Long":-0.065076,"Installed":true,"Locked":false},{"Name":"York Hall, Bethnal Green","TerminalName":"200042","Lat":51.528936,"Long":-0.055894,"Installed":true,"Locked":false},{"Name":"Jubilee Crescent, Cubitt Town","TerminalName":"200054","Lat":51.493381,"Long":-0.007542,"Installed":true,"Locked":false},{"Name":"Fishermans Walk West, Canary Wharf","TerminalName":"022165","Lat":51.50623,"Long":-0.02296,"Installed":true,"Locked":false},{"Name":"Shadwell Station, Shadwell","TerminalName":"200020","Lat":51.511088,"Long":-0.057159,"Installed":true,"Locked":false},{"Name":"Jubilee Street, Stepney","TerminalName":"200002","Lat":51.515975,"Long":-0.053177,"Installed":true,"Locked":false},{"Name":"Hermitage Court, Wapping","TerminalName":"200021","Lat":51.504719,"Long":-0.063531,"Installed":true,"Locked":false},{"Name":"St Katharines Way, Tower","TerminalName":"200049","Lat":51.505697,"Long":-0.070542,"Installed":true,"Locked":false},{"Name":"Garnet Street, Shadwell","TerminalName":"200045","Lat":51.508447,"Long":-0.055167,"Installed":true,"Locked":false},{"Name":"Napier Avenue, Millwall","TerminalName":"200046","Lat":51.487679,"Long":-0.021582,"Installed":true,"Locked":false},{"Name":"East Ferry Road, Cubitt Town","TerminalName":"200031","Lat":51.49447,"Long":-0.014409,"Installed":true,"Locked":false},{"Name":"Parkway, Camden Town","TerminalName":"200118","Lat":51.538071,"Long":-0.144664,"Installed":true,"Locked":false},{"Name":"Castlehaven Road, Camden Town","TerminalName":"200016","Lat":51.542138,"Long":-0.145393,"Installed":true,"Locked":false},{"Name":"Wapping Lane, Wapping","TerminalName":"200034","Lat":51.504749,"Long":-0.057544,"Installed":true,"Locked":false},{"Name":"Gun Makers Lane, Old Ford","TerminalName":"200014","Lat":51.535179,"Long":-0.03338,"Installed":true,"Locked":false},{"Name":"Burdett Road, Mile End","TerminalName":"200123","Lat":51.516196,"Long":-0.029138,"Installed":true,"Locked":false},{"Name":"Aston Street, Stepney","TerminalName":"200013","Lat":51.516,"Long":-0.038775,"Installed":true,"Locked":false},{"Name":"Bonny Street, Camden Town","TerminalName":"200105","Lat":51.541603,"Long":-0.138853,"Installed":true,"Locked":false},{"Name":"Thurtle Road, Haggerston","TerminalName":"200093","Lat":51.534776,"Long":-0.071881,"Installed":true,"Locked":false},{"Name":"St. Mary and St. Michael Church, Stepney","TerminalName":"200082","Lat":51.51417,"Long":-0.052099,"Installed":true,"Locked":false},{"Name":"Pitfield Street (North),Hoxton","TerminalName":"200152","Lat":51.53558,"Long":-0.08249,"Installed":true,"Locked":false},{"Name":"Whiston Road, Haggerston","TerminalName":"200158","Lat":51.534464,"Long":-0.076341,"Installed":true,"Locked":false},{"Name":"Southern Grove, Bow","TerminalName":"200168","Lat":51.523538,"Long":-0.030556,"Installed":true,"Locked":false},{"Name":"Cantrell Road, Bow","TerminalName":"200150","Lat":51.521564,"Long":-0.022694,"Installed":true,"Locked":false},{"Name":"Lindfield Street, Poplar","TerminalName":"022178","Lat":51.513757,"Long":-0.020467,"Installed":true,"Locked":false},{"Name":"Mostyn Grove, Bow","TerminalName":"200174","Lat":51.530535,"Long":-0.025492,"Installed":true,"Locked":false},{"Name":"Hewison Street, Old Ford","TerminalName":"200006","Lat":51.533283,"Long":-0.028155,"Installed":true,"Locked":false},{"Name":"Malmesbury Road, Bow","TerminalName":"200019","Lat":51.529452,"Long":-0.027616,"Installed":true,"Locked":false},{"Name":"Millharbour, Millwall","TerminalName":"022167","Lat":51.496137,"Long":-0.019355,"Installed":true,"Locked":false},{"Name":"Castalia Square, Cubitt Town","TerminalName":"200155","Lat":51.498125,"Long":-0.011457,"Installed":true,"Locked":false},{"Name":"Lightermans Road, Millwall","TerminalName":"200004","Lat":51.499041,"Long":-0.020157,"Installed":true,"Locked":false},{"Name":"Stebondale Street, Cubitt Town","TerminalName":"200009","Lat":51.489096,"Long":-0.009205,"Installed":true,"Locked":false},{"Name":"Spindrift Avenue, Millwall","TerminalName":"200018","Lat":51.49109,"Long":-0.018716,"Installed":true,"Locked":false},{"Name":"Stepney Green Station, Stepney","TerminalName":"200012","Lat":51.521889,"Long":-0.04667,"Installed":true,"Locked":false},{"Name":"Pott Street, Bethnal Green","TerminalName":"200156","Lat":51.527152,"Long":-0.058005,"Installed":true,"Locked":false},{"Name":"Flamborough Street, Limehouse","TerminalName":"200115","Lat":51.5128711,"Long":-0.0389866,"Installed":true,"Locked":false},{"Name":"Saunders Ness Road, Cubitt Town","TerminalName":"200022","Lat":51.487129,"Long":-0.009001,"Installed":true,"Locked":false},{"Name":"Thornfield House, Poplar","TerminalName":"200052","Lat":51.509843,"Long":-0.02377,"Installed":true,"Locked":false},{"Name":"Albert Gardens, Stepney","TerminalName":"022166","Lat":51.51328,"Long":-0.047784,"Installed":true,"Locked":false},{"Name":"Bromley High Street, Bromley","TerminalName":"022172","Lat":51.528828,"Long":-0.013258,"Installed":true,"Locked":false},{"Name":"Old Ford Road, Bethnal Green","TerminalName":"022173","Lat":51.531127,"Long":-0.048017,"Installed":true,"Locked":false},{"Name":"Granby Street, Shoreditch","TerminalName":"022174","Lat":51.525645,"Long":-0.069543,"Installed":true,"Locked":false},{"Name":"Canton Street, Poplar","TerminalName":"022175","Lat":51.511811,"Long":-0.025626,"Installed":true,"Locked":false},{"Name":"Reardon Street, Wapping","TerminalName":"022176","Lat":51.506946,"Long":-0.058681,"Installed":true,"Locked":false},{"Name":"Christian Street, Whitechapel","TerminalName":"022177","Lat":51.513074,"Long":-0.064094,"Installed":true,"Locked":false},{"Name":"Pennington Street, Wapping","TerminalName":"200090","Lat":51.508622,"Long":-0.065006,"Installed":true,"Locked":false},{"Name":"Queen Marys, Mile End","TerminalName":"200249","Lat":51.522507,"Long":-0.041378,"Installed":true,"Locked":false},{"Name":"The Green Bridge, Mile End","TerminalName":"200230","Lat":51.524677,"Long":-0.03562,"Installed":true,"Locked":false},{"Name":"South Quay East, Canary Wharf","TerminalName":"200233","Lat":51.50196,"Long":-0.016251,"Installed":true,"Locked":false},{"Name":"Bow Church Station, Bow","TerminalName":"200252","Lat":51.528169,"Long":-0.018703,"Installed":true,"Locked":false},{"Name":"Devons Road, Bow","TerminalName":"200255","Lat":51.52512,"Long":-0.015578,"Installed":true,"Locked":false},{"Name":"Coborn Street, Mile End","TerminalName":"200242","Lat":51.526535,"Long":-0.028619,"Installed":true,"Locked":false},{"Name":"Bow Road Station, Bow","TerminalName":"200251","Lat":51.527058,"Long":-0.025296,"Installed":true,"Locked":false},{"Name":"Furze Green, Bow","TerminalName":"200011","Lat":51.519265,"Long":-0.021345,"Installed":true,"Locked":false},{"Name":"Sidney Street, Stepney","TerminalName":"200148","Lat":51.519806,"Long":-0.055731,"Installed":true,"Locked":false},{"Name":"Cephas Street, Bethnal Green","TerminalName":"200073","Lat":51.522561,"Long":-0.054883,"Installed":true,"Locked":false},{"Name":"South Quay West, Canary Wharf","TerminalName":"200241","Lat":51.502635,"Long":-0.022702,"Installed":true,"Locked":false},{"Name":"Cleveland Way, Bethnal Green","TerminalName":"200250","Lat":51.520893,"Long":-0.051394,"Installed":true,"Locked":false},{"Name":"St John's Park, Cubitt Town","TerminalName":"200243","Lat":51.496454,"Long":-0.009506,"Installed":true,"Locked":false},{"Name":"Ackroyd Drive, Bow","TerminalName":"200038","Lat":51.520398,"Long":-0.026768,"Installed":true,"Locked":false},{"Name":"Bell Lane, Liverpool Street","TerminalName":"200036","Lat":51.517475,"Long":-0.075855,"Installed":true,"Locked":false},{"Name":"Clarkson Street, Bethnal Green","TerminalName":"200131","Lat":51.528692,"Long":-0.059091,"Installed":true,"Locked":false},{"Name":"Fournier Street, Whitechapel","TerminalName":"200157","Lat":51.519362,"Long":-0.074431,"Installed":true,"Locked":false},{"Name":"Fore Street, Guildhall","TerminalName":"200253","Lat":51.517842,"Long":-0.090075,"Installed":true,"Locked":false},{"Name":"Westferry DLR, Limehouse","TerminalName":"200238","Lat":51.509303,"Long":-0.025996,"Installed":true,"Locked":false},{"Name":"Sutton Street, Shadwell","TerminalName":"200256","Lat":51.511066,"Long":-0.053558,"Installed":true,"Locked":false},{"Name":"Pritchard's Road, Bethnal Green","TerminalName":"200083","Lat":51.532091,"Long":-0.06142,"Installed":true,"Locked":false},{"Name":"Watney Market, Stepney","TerminalName":"200162","Lat":51.5142228,"Long":-0.055656,"Installed":true,"Locked":false},{"Name":"Portman Square, Marylebone","TerminalName":"200008","Lat":51.516204,"Long":-0.155525,"Installed":true,"Locked":false},{"Name":"Russell Gardens, Holland Park","TerminalName":"200080","Lat":51.500088,"Long":-0.211316,"Installed":true,"Locked":false},{"Name":"Chrisp Street Market, Poplar","TerminalName":"200089","Lat":51.5112,"Long":-0.014438,"Installed":true,"Locked":false},{"Name":"Ford Road, Old Ford","TerminalName":"200027","Lat":51.532513,"Long":-0.033085,"Installed":true,"Locked":false},{"Name":"Antill Road, Mile End","TerminalName":"200041","Lat":51.528224,"Long":-0.037471,"Installed":true,"Locked":false},{"Name":"Teviot Street, Poplar","TerminalName":"200254","Lat":51.518811,"Long":-0.011662,"Installed":true,"Locked":false},{"Name":"Bancroft Road, Bethnal Green","TerminalName":"200234","Lat":51.526041,"Long":-0.047218,"Installed":true,"Locked":false},{"Name":"Driffield Road, Old Ford","TerminalName":"200030","Lat":51.534137,"Long":-0.037366,"Installed":true,"Locked":false},{"Name":"Clinton Road, Mile End","TerminalName":"200161","Lat":51.525941,"Long":-0.036017,"Installed":true,"Locked":false},{"Name":"Langdon Park, Poplar","TerminalName":"200160","Lat":51.51549,"Long":-0.013475,"Installed":true,"Locked":false},{"Name":"Lancaster Gate , Bayswater","TerminalName":"200017","Lat":51.511654,"Long":-0.179668,"Installed":true,"Locked":false},{"Name":"Churchill Place, Canary Wharf","TerminalName":"200153","Lat":51.504714,"Long":-0.014293,"Installed":true,"Locked":false},{"Name":"Lancaster Drive, Blackwall","TerminalName":"200143","Lat":51.503143,"Long":-0.008428,"Installed":true,"Locked":false},{"Name":"Hansard Mews, Shepherds Bush","TerminalName":"200154","Lat":51.503802,"Long":-0.215808,"Installed":true,"Locked":false},{"Name":"Clarges Street, West End","TerminalName":"200088","Lat":51.507326,"Long":-0.145827,"Installed":true,"Locked":false},{"Name":"Manresa Road, Chelsea","TerminalName":"200010","Lat":51.486892,"Long":-0.170983,"Installed":true,"Locked":false},{"Name":"Newby Place, Poplar","TerminalName":"200146","Lat":51.508896,"Long":-0.012413,"Installed":true,"Locked":false},{"Name":"Twig Folly Bridge, Mile End","TerminalName":"200167","Lat":51.530326,"Long":-0.042744,"Installed":true,"Locked":false},{"Name":"Jubilee Plaza, Canary Wharf","TerminalName":"200163","Lat":51.50357,"Long":-0.020068,"Installed":true,"Locked":false},{"Name":"Wellington Row, Bethnal Green","TerminalName":"200165","Lat":51.528222,"Long":-0.069743,"Installed":true,"Locked":false},{"Name":"Goldsmiths Row, Haggerston","TerminalName":"200159","Lat":51.531864,"Long":-0.066035,"Installed":true,"Locked":false},{"Name":"Gloucester Avenue, Camden Town","TerminalName":"200145","Lat":51.537349,"Long":-0.147154,"Installed":true,"Locked":false},{"Name":"Queensbridge Road, Haggerston","TerminalName":"200024","Lat":51.53385,"Long":-0.06992,"Installed":true,"Locked":false},{"Name":"Old Montague Street, Whitechapel","TerminalName":"200239","Lat":51.51793,"Long":-0.067937,"Installed":true,"Locked":false},{"Name":"Naval Row, Blackwall","TerminalName":"200050","Lat":51.508981,"Long":-0.00699,"Installed":true,"Locked":false},{"Name":"Hoxton Station, Haggerston","TerminalName":"200151","Lat":51.531091,"Long":-0.075901,"Installed":true,"Locked":false},{"Name":"Albany Street, Regent's Park","TerminalName":"200134","Lat":51.528302,"Long":-0.144466,"Installed":true,"Locked":false},{"Name":"Green Park Station, West End","TerminalName":"200096","Lat":51.506613,"Long":-0.142844,"Installed":true,"Locked":false},{"Name":"Salmon Lane, Limehouse","TerminalName":"200147","Lat":51.514115,"Long":-0.033828,"Installed":true,"Locked":false},{"Name":"Lansdowne Walk, Notting Hill","TerminalName":"200065","Lat":51.509591,"Long":-0.204666,"Installed":true,"Locked":false},{"Name":"Percival Street, Finsbury","TerminalName":"200051","Lat":51.526153,"Long":-0.102208,"Installed":true,"Locked":false},{"Name":"Arlington Road, Camden Town","TerminalName":"200070","Lat":51.539957,"Long":-0.145246,"Installed":true,"Locked":false},{"Name":"New Fetter Lane, Holborn","TerminalName":"200044","Lat":51.517428,"Long":-0.107987,"Installed":true,"Locked":false},{"Name":"East India DLR, Blackwall","TerminalName":"200127","Lat":51.509474,"Long":-0.002275,"Installed":true,"Locked":false},{"Name":"Westminster Bridge Road, Elephant \u0026 Castle","TerminalName":"200076","Lat":51.498386,"Long":-0.107913,"Installed":true,"Locked":false},{"Name":"Gaywood  Street, Elephant \u0026 Castle","TerminalName":"200132","Lat":51.49605,"Long":-0.104193,"Installed":true,"Locked":false},{"Name":"Harford Street, Mile End","TerminalName":"200102","Lat":51.521564,"Long":-0.039264,"Installed":true,"Locked":false},{"Name":"Montgomery Square, Canary Wharf","TerminalName":"200066","Lat":51.503447,"Long":-0.016233,"Installed":true,"Locked":false},{"Name":"Watney Street, Shadwell","TerminalName":"200149","Lat":51.511542,"Long":-0.056667,"Installed":true,"Locked":false},{"Name":"Regent's Row , Haggerston ","TerminalName":"200064","Lat":51.535678,"Long":-0.062546,"Installed":true,"Locked":false},{"Name":"Aberfeldy Street, Poplar","TerminalName":"200078","Lat":51.513548,"Long":-0.005659,"Installed":true,"Locked":false},{"Name":"Westfield Eastern Access Road, Shepherd's Bush","TerminalName":"200245","Lat":51.509424,"Long":-0.219712,"Installed":true,"Locked":false},{"Name":"Heron Quays DLR, Canary Wharf","TerminalName":"200138","Lat":51.502661,"Long":-0.021596,"Installed":true,"Locked":false},{"Name":"King Edward Street, St Pauls","TerminalName":"200203","Lat":51.51601,"Long":-0.0985,"Installed":true,"Locked":false},{"Name":"Page Street, Westminster","TerminalName":"200048","Lat":51.493978,"Long":-0.127554,"Installed":true,"Locked":false},{"Name":"Abbotsbury Road, Holland Park","TerminalName":"200111","Lat":51.501391,"Long":-0.205991,"Installed":true,"Locked":false},{"Name":"Ladbroke Grove Central, Notting Hill","TerminalName":"200015","Lat":51.511624,"Long":-0.205921,"Installed":true,"Locked":false},{"Name":"Rectory Square, Stepney","TerminalName":"200037","Lat":51.518369,"Long":-0.043371,"Installed":true,"Locked":false},{"Name":"Bury Place, Holborn","TerminalName":"200074","Lat":51.51746,"Long":-0.12335,"Installed":true,"Locked":false},{"Name":"Preston's Road, Cubitt Town","TerminalName":"200232","Lat":51.499286,"Long":-0.009152,"Installed":true,"Locked":false},{"Name":"Somerset House, Strand","TerminalName":"200068","Lat":51.509943,"Long":-0.117619,"Installed":true,"Locked":false},{"Name":"Selby Street, Whitechapel","TerminalName":"200135","Lat":51.521905,"Long":-0.063386,"Installed":true,"Locked":false},{"Name":"Westfield Ariel Way, White City","TerminalName":"200141","Lat":51.509158,"Long":-0.224103,"Installed":true,"Locked":false},{"Name":"Bishop's Bridge Road West, Bayswater","TerminalName":"200110","Lat":51.51616,"Long":-0.18697,"Installed":true,"Locked":false},{"Name":"Pitfield Street Central, Hoxton","TerminalName":"200248","Lat":51.53213,"Long":-0.08299,"Installed":true,"Locked":false},{"Name":"Upper Bank Street, Canary Wharf","TerminalName":"200099","Lat":51.503083,"Long":-0.017676,"Installed":true,"Locked":false},{"Name":"Westfield Southern Terrace ,Shepherd's Bush","TerminalName":"200061","Lat":51.506256,"Long":-0.218337,"Installed":true,"Locked":false},{"Name":"Greenland Road, Camden Town","TerminalName":"200026","Lat":51.539099,"Long":-0.141728,"Installed":true,"Locked":false},{"Name":"Limerston Street, Chelsea","TerminalName":"200001","Lat":51.485587,"Long":-0.18119,"Installed":true,"Locked":false},{"Name":"Eagle Wharf Road, Hoxton","TerminalName":"200246","Lat":51.53356,"Long":-0.09315,"Installed":true,"Locked":false},{"Name":"Alpha Grove, Millwall","TerminalName":"200109","Lat":51.497304,"Long":-0.022793,"Installed":true,"Locked":false},{"Name":"Globe Town Market, Bethnal Green","TerminalName":"200247","Lat":51.528869,"Long":-0.047548,"Installed":true,"Locked":false},{"Name":"Hollybush Gardens, Bethnal Green","TerminalName":"200244","Lat":51.527607,"Long":-0.057133,"Installed":true,"Locked":false},{"Name":"Queen Street 2, Bank","TerminalName":"200128","Lat":51.511246,"Long":-0.093051,"Installed":true,"Locked":false},{"Name":"Doddington Grove, Kennington","TerminalName":"200084","Lat":51.48692917,"Long":-0.102996299,"Installed":true,"Locked":false},{"Name":"New Cavendish Street, Marylebone","TerminalName":"200005","Lat":51.519167,"Long":-0.147983,"Installed":true,"Locked":false},{"Name":"Abingdon Green, Great College Street","TerminalName":"200231","Lat":51.497622,"Long":-0.125978,"Installed":true,"Locked":false},{"Name":"Ilchester Gardens, Bayswater","TerminalName":"200086","Lat":51.51244,"Long":-0.19096,"Installed":true,"Locked":false},{"Name":"Mudchute DLR, Cubitt Town","TerminalName":"200092","Lat":51.490645,"Long":-0.014582,"Installed":true,"Locked":false},{"Name":"Monument Street, Monument","TerminalName":"200101","Lat":51.50964,"Long":-0.08497,"Installed":true,"Locked":false},{"Name":"Hoxton Street, Hoxton","TerminalName":"200071","Lat":51.52959,"Long":-0.0801,"Installed":true,"Locked":false},{"Name":"Drayton Gardens, Chelsea","TerminalName":"200060","Lat":51.487196,"Long":-0.179369,"Installed":true,"Locked":false},{"Name":"Greenberry Street, St.John's Wood","TerminalName":"200236","Lat":51.53256,"Long":-0.16862,"Installed":true,"Locked":false},{"Name":"Westfield Library Corner, Shepherd's Bush","TerminalName":"200227","Lat":51.506093,"Long":-0.2242237,"Installed":true,"Locked":false},{"Name":"Bishop's Bridge Road East, Bayswater","TerminalName":"200108","Lat":51.5171,"Long":-0.18377,"Installed":true,"Locked":false},{"Name":"Northdown Street, King's Cross","TerminalName":"200058","Lat":51.531066,"Long":-0.11934,"Installed":true,"Locked":false},{"Name":"Kingsway Southbound, Strand","TerminalName":"200226","Lat":51.513875,"Long":-0.117774,"Installed":true,"Locked":false},{"Name":"Hammersmith Road, Hammersmith","TerminalName":"200142","Lat":51.493267,"Long":-0.21985,"Installed":true,"Locked":false},{"Name":"Parson's Green , Parson's Green","TerminalName":"200237","Lat":51.472817,"Long":-0.199783,"Installed":true,"Locked":false},{"Name":"Fulham Park Road, Fulham","TerminalName":"200229","Lat":51.473471,"Long":-0.20782,"Installed":true,"Locked":false},{"Name":"Southerton Road, Hammersmith","TerminalName":"200166","Lat":51.494499,"Long":-0.228188,"Installed":true,"Locked":false},{"Name":"Manbre Road, Hammersmith","TerminalName":"200235","Lat":51.485743,"Long":-0.223616,"Installed":true,"Locked":false},{"Name":"South Lambeth Road, Vauxhall","TerminalName":"200133","Lat":51.481747,"Long":-0.124642,"Installed":true,"Locked":false},{"Name":"BBC White City, White City","TerminalName":"200136","Lat":51.514767,"Long":-0.225787,"Installed":true,"Locked":false},{"Name":"Union Grove, Wandsworth Road","TerminalName":"200211","Lat":51.472993,"Long":-0.133972,"Installed":true,"Locked":false},{"Name":"Caldwell Street, Stockwell","TerminalName":"200137","Lat":51.477839,"Long":-0.116493,"Installed":true,"Locked":false},{"Name":"St Martin's Close, Camden Town","TerminalName":"200195","Lat":51.538792,"Long":-0.138535,"Installed":true,"Locked":false},{"Name":"Seymour Place, Marylebone","TerminalName":"200198","Lat":51.520331,"Long":-0.163667,"Installed":true,"Locked":false},{"Name":"Addison Road, Holland Park","TerminalName":"200218","Lat":51.504199,"Long":-0.210941,"Installed":true,"Locked":false},{"Name":"Putney Bridge Station, Fulham","TerminalName":"200125","Lat":51.468814,"Long":-0.210279,"Installed":true,"Locked":false},{"Name":"Colet Gardens, Hammersmith","TerminalName":"200224","Lat":51.491093,"Long":-0.216493,"Installed":true,"Locked":false},{"Name":"Sugden Road, Battersea","TerminalName":"200208","Lat":51.46512358,"Long":-0.157788279,"Installed":true,"Locked":false},{"Name":"Danvers Street, West Chelsea","TerminalName":"200222","Lat":51.48256792,"Long":-0.172078187,"Installed":true,"Locked":false},{"Name":"Princedale Road , Holland Park","TerminalName":"200067","Lat":51.50646524,"Long":-0.208486599,"Installed":true,"Locked":false},{"Name":"Wandsworth Rd, Isley Court, Wandsworth Road","TerminalName":"200175","Lat":51.46925984,"Long":-0.141812513,"Installed":true,"Locked":false},{"Name":"Woodstock Grove, Shepherd's Bush","TerminalName":"200214","Lat":51.50403821,"Long":-0.217400093,"Installed":true,"Locked":false},{"Name":"Bradmead, Nine Elms","TerminalName":"200025","Lat":51.47817208,"Long":-0.144690541,"Installed":true,"Locked":false},{"Name":"Finlay Street, Fulham","TerminalName":"200029","Lat":51.4768851,"Long":-0.215895601,"Installed":true,"Locked":false},{"Name":"Aintree Street, Fulham","TerminalName":"200098","Lat":51.48102131,"Long":-0.209973497,"Installed":true,"Locked":false},{"Name":"Elysium Place, Fulham","TerminalName":"200028","Lat":51.47107905,"Long":-0.207842908,"Installed":true,"Locked":false},{"Name":"Eel Brook Common, Walham Green","TerminalName":"300003","Lat":51.47625965,"Long":-0.193254007,"Installed":true,"Locked":false},{"Name":"Irene Road, Parsons Green","TerminalName":"300012","Lat":51.4737636,"Long":-0.197010096,"Installed":true,"Locked":false},{"Name":"Surrey Lane, Battersea","TerminalName":"300010","Lat":51.47518024,"Long":-0.167160736,"Installed":true,"Locked":false},{"Name":"Wandsworth Town Station, Wandsworth","TerminalName":"200091","Lat":51.46086446,"Long":-0.187427294,"Installed":true,"Locked":false},{"Name":"Lansdowne Road, Ladbroke Grove","TerminalName":"200172","Lat":51.50748124,"Long":-0.205535908,"Installed":true,"Locked":false},{"Name":"Nantes Close, Wandsworth","TerminalName":"200186","Lat":51.46193072,"Long":-0.180791784,"Installed":true,"Locked":false},{"Name":"Courland Grove, Wandsworth Road","TerminalName":"200173","Lat":51.4729184,"Long":-0.132102704,"Installed":true,"Locked":false},{"Name":"Queen's Circus, Battersea Park","TerminalName":"200190","Lat":51.47761941,"Long":-0.149551631,"Installed":true,"Locked":false},{"Name":"Normand Park, Fulham","TerminalName":"300008","Lat":51.48438657,"Long":-0.20481514,"Installed":true,"Locked":false},{"Name":"Holden Street, Battersea","TerminalName":"200007","Lat":51.4687905,"Long":-0.158230901,"Installed":true,"Locked":false},{"Name":"William Morris Way, Sands End","TerminalName":"200062","Lat":51.46881971,"Long":-0.184318843,"Installed":true,"Locked":false},{"Name":"Morie Street, Wandsworth","TerminalName":"200187","Lat":51.45995384,"Long":-0.190184054,"Installed":true,"Locked":false},{"Name":"Clarence Walk, Stockwell","TerminalName":"200194","Lat":51.47073264,"Long":-0.126994068,"Installed":true,"Locked":false},{"Name":"Battersea Park Road, Nine Elms","TerminalName":"200183","Lat":51.4795017,"Long":-0.141770709,"Installed":true,"Locked":false},{"Name":"Sheepcote Lane, Battersea","TerminalName":"200176","Lat":51.47053858,"Long":-0.163041605,"Installed":true,"Locked":false},{"Name":"Vereker Road, West Kensington","TerminalName":"200116","Lat":51.48959104,"Long":-0.209378594,"Installed":true,"Locked":false},{"Name":"Brook Green South, Brook Green","TerminalName":"300002","Lat":51.49434708,"Long":-0.215804559,"Installed":true,"Locked":false},{"Name":"Greyhound Road, Hammersmith","TerminalName":"200215","Lat":51.48606206,"Long":-0.214428378,"Installed":true,"Locked":false},{"Name":"South Park, Sands End","TerminalName":"200180","Lat":51.46706414,"Long":-0.193502076,"Installed":true,"Locked":false},{"Name":"Spencer Park, Wandsworth Common","TerminalName":"200191","Lat":51.45787019,"Long":-0.174691623,"Installed":true,"Locked":false},{"Name":"Falcon Road, Clapham Junction","TerminalName":"300014","Lat":51.46663393,"Long":-0.169821175,"Installed":true,"Locked":false},{"Name":"Coomer Place, West Kensington","TerminalName":"200081","Lat":51.48357068,"Long":-0.202038682,"Installed":true,"Locked":false},{"Name":"Silverthorne Road, Battersea","TerminalName":"200179","Lat":51.47286577,"Long":-0.148059277,"Installed":true,"Locked":false},{"Name":"Archbishop's Park, Waterloo","TerminalName":"300025","Lat":51.49824168,"Long":-0.117495865,"Installed":true,"Locked":false},{"Name":"Fawcett Close, Battersea","TerminalName":"200192","Lat":51.46916161,"Long":-0.174485792,"Installed":true,"Locked":false},{"Name":"All Saints' Road, Portobello","TerminalName":"300026","Lat":51.5190427,"Long":-0.204764421,"Installed":true,"Locked":false},{"Name":"Rainville Road, Hammersmith","TerminalName":"200182","Lat":51.48373225,"Long":-0.223852256,"Installed":true,"Locked":false},{"Name":"Great Suffolk Street, The Borough","TerminalName":"200200","Lat":51.50173215,"Long":-0.100292412,"Installed":true,"Locked":false},{"Name":"Buckingham Gate, Westminster","TerminalName":"200178","Lat":51.49886563,"Long":-0.137424571,"Installed":true,"Locked":false},{"Name":"Richmond Way, Shepherd's Bush","TerminalName":"200181","Lat":51.50035306,"Long":-0.217515071,"Installed":true,"Locked":false},{"Name":"Peterborough Road, Sands End","TerminalName":"200171","Lat":51.46904022,"Long":-0.19627483,"Installed":true,"Locked":false},{"Name":"World's End Place, West Chelsea","TerminalName":"300009","Lat":51.48180515,"Long":-0.18027465,"Installed":true,"Locked":false},{"Name":"St. Mark's Road, North Kensington","TerminalName":"300034","Lat":51.51687069,"Long":-0.213872396,"Installed":true,"Locked":false},{"Name":"Thorndike Close, West Chelsea","TerminalName":"300030","Lat":51.48089844,"Long":-0.183853573,"Installed":true,"Locked":false},{"Name":"Evesham Street, Avondale","TerminalName":"300022","Lat":51.51148696,"Long":-0.218190203,"Installed":true,"Locked":false},{"Name":"Simpson Street, Battersea","TerminalName":"200196","Lat":51.47084722,"Long":-0.17070367,"Installed":true,"Locked":false},{"Name":"Ashmole Estate, Oval","TerminalName":"200223","Lat":51.48267821,"Long":-0.117661574,"Installed":true,"Locked":false},{"Name":"Crabtree Lane, Fulham","TerminalName":"200221","Lat":51.48294452,"Long":-0.219346128,"Installed":true,"Locked":false},{"Name":"Broomhouse Lane, Parsons Green","TerminalName":"200040","Lat":51.46841875,"Long":-0.199135704,"Installed":true,"Locked":false},{"Name":"Blythe Road West, Shepherd's Bush","TerminalName":"200220","Lat":51.4996806,"Long":-0.221791552,"Installed":true,"Locked":false},{"Name":"Ethelburga Estate, Battersea Park","TerminalName":"300005","Lat":51.47729232,"Long":-0.16478637,"Installed":true,"Locked":false},{"Name":"Grant Road West, Clapham Junction","TerminalName":"200212","Lat":51.46437067,"Long":-0.174619404,"Installed":true,"Locked":false},{"Name":"West Kensington Station, West Kensington","TerminalName":"300020","Lat":51.49087074,"Long":-0.206029743,"Installed":true,"Locked":false},{"Name":"All Saints Church, Portobello","TerminalName":"300023","Lat":51.51632095,"Long":-0.202608612,"Installed":true,"Locked":false},{"Name":"Phene Street, Chelsea","TerminalName":"200189","Lat":51.48498496,"Long":-0.167919869,"Installed":true,"Locked":false},{"Name":"Clarendon Road, Avondale","TerminalName":"200124","Lat":51.51323001,"Long":-0.211593602,"Installed":true,"Locked":false},{"Name":"Austin Road, Battersea","TerminalName":"300013","Lat":51.474376,"Long":-0.155442787,"Installed":true,"Locked":false},{"Name":"Smugglers Way, Wandsworth","TerminalName":"200113","Lat":51.46108367,"Long":-0.191722864,"Installed":true,"Locked":false},{"Name":"Olympia Way, Olympia","TerminalName":"300004","Lat":51.49610093,"Long":-0.208158259,"Installed":true,"Locked":false},{"Name":"Shepherd's Bush Road North, Shepherd's Bush","TerminalName":"200209","Lat":51.5015946,"Long":-0.222293381,"Installed":true,"Locked":false},{"Name":"Ravenscourt Park Station, Hammersmith","TerminalName":"300037","Lat":51.49422354,"Long":-0.236769936,"Installed":true,"Locked":false},{"Name":"Teversham Lane, Stockwell","TerminalName":"300036","Lat":51.47614939,"Long":-0.1232585,"Installed":true,"Locked":false},{"Name":"Ashley Crescent, Battersea","TerminalName":"200169","Lat":51.46718562,"Long":-0.152248582,"Installed":true,"Locked":false},{"Name":"Parsons Green Station, Parsons Green","TerminalName":"300052","Lat":51.475089,"Long":-0.201968,"Installed":true,"Locked":false},{"Name":"Grant Road Central, Clapham Junction","TerminalName":"200206","Lat":51.4646884,"Long":-0.173656546,"Installed":true,"Locked":false},{"Name":"Hibbert Street, Battersea","TerminalName":"300051","Lat":51.46517078,"Long":-0.18038939,"Installed":true,"Locked":false},{"Name":"Carnegie Street, King's Cross","TerminalName":"300035","Lat":51.53546778,"Long":-0.11619105,"Installed":true,"Locked":false},{"Name":"Usk Road, Battersea","TerminalName":"200126","Lat":51.46348914,"Long":-0.182126248,"Installed":true,"Locked":false},{"Name":"Hartington Road, Stockwell","TerminalName":"200207","Lat":51.47787084,"Long":-0.126874471,"Installed":true,"Locked":false},{"Name":"Heath Road, Battersea","TerminalName":"200023","Lat":51.46866929,"Long":-0.146544642,"Installed":true,"Locked":false},{"Name":"Esmond Street, Putney","TerminalName":"200170","Lat":51.46231278,"Long":-0.211468596,"Installed":true,"Locked":false},{"Name":"Orbel Street, Battersea","TerminalName":"200114","Lat":51.47453545,"Long":-0.170210533,"Installed":true,"Locked":false},{"Name":"Westbridge Road, Battersea","TerminalName":"200210","Lat":51.47768469,"Long":-0.170329317,"Installed":true,"Locked":false},{"Name":"Bishop's Avenue, Fulham","TerminalName":"200043","Lat":51.47303687,"Long":-0.214749808,"Installed":true,"Locked":false},{"Name":"Crisp Road, Hammersmith","TerminalName":"200059","Lat":51.48810829,"Long":-0.22660621,"Installed":true,"Locked":false},{"Name":"Dorothy Road, Clapham Junction","TerminalName":"200119","Lat":51.46506424,"Long":-0.163750945,"Installed":true,"Locked":false},{"Name":"Neville Gill Close, Wandsworth","TerminalName":"200188","Lat":51.45475251,"Long":-0.195197203,"Installed":true,"Locked":false},{"Name":"Osiers Road, Wandsworth","TerminalName":"200219","Lat":51.46067005,"Long":-0.198735357,"Installed":true,"Locked":false},{"Name":"Beryl Road, Hammersmith","TerminalName":"200097","Lat":51.48814438,"Long":-0.222456468,"Installed":true,"Locked":false},{"Name":"Maclise Road, Olympia","TerminalName":"200216","Lat":51.49760804,"Long":-0.21145598,"Installed":true,"Locked":false},{"Name":"Northfields, Wandsworth","TerminalName":"200204","Lat":51.46095151,"Long":-0.20066766,"Installed":true,"Locked":false},{"Name":"Spanish Road, Wandsworth","TerminalName":"200106","Lat":51.45922541,"Long":-0.180884959,"Installed":true,"Locked":false},{"Name":"Stanley Grove, Battersea","TerminalName":"200199","Lat":51.47047503,"Long":-0.152130083,"Installed":true,"Locked":false},{"Name":"Erin Close, Walham Green","TerminalName":"200184","Lat":51.47946386,"Long":-0.195777222,"Installed":true,"Locked":false},{"Name":"Cadogan Close, Victoria Park","TerminalName":"200112","Lat":51.54211855,"Long":-0.028941601,"Installed":true,"Locked":false},{"Name":"Felsham Road, Putney","TerminalName":"300019","Lat":51.464786,"Long":-0.215618902,"Installed":true,"Locked":false},{"Name":"Putney Rail Station, Putney","TerminalName":"300033","Lat":51.46071722,"Long":-0.216526155,"Installed":true,"Locked":false},{"Name":"Islington Green, Angel","TerminalName":"300031","Lat":51.53638435,"Long":-0.102757578,"Installed":true,"Locked":false},{"Name":"Charing Cross Hospital, Hammersmith","TerminalName":"300018","Lat":51.48728535,"Long":-0.217995921,"Installed":true,"Locked":false},{"Name":"Charlotte Terrace, Angel","TerminalName":"200129","Lat":51.53639219,"Long":-0.112721065,"Installed":true,"Locked":false},{"Name":"Shoreditch Court, Haggerston","TerminalName":"200121","Lat":51.53908372,"Long":-0.070329419,"Installed":true,"Locked":false},{"Name":"Belford House, Haggerston","TerminalName":"200057","Lat":51.5366541,"Long":-0.07023031,"Installed":true,"Locked":false},{"Name":"Battersea Church Road, Battersea","TerminalName":"200201","Lat":51.47696496,"Long":-0.174347066,"Installed":true,"Locked":false},{"Name":"Vicarage Crescent, Battersea","TerminalName":"200077","Lat":51.47287627,"Long":-0.176267008,"Installed":true,"Locked":false},{"Name":"Durant Street, Bethnal Green","TerminalName":"200213","Lat":51.52868155,"Long":-0.065550321,"Installed":true,"Locked":false},{"Name":"St. Bride Street, Holborn","TerminalName":"200094","Lat":51.51505991,"Long":-0.10534448,"Installed":true,"Locked":false},{"Name":"Mexfield Road, East Putney","TerminalName":"200063","Lat":51.45682071,"Long":-0.202802098,"Installed":true,"Locked":false},{"Name":"Upper Richmond Road, East Putney","TerminalName":"300042","Lat":51.45971528,"Long":-0.212145939,"Installed":true,"Locked":false},{"Name":"Snowsfields, London Bridge","TerminalName":"200193","Lat":51.50215353,"Long":-0.083632928,"Installed":true,"Locked":false},{"Name":"Barons Court Station, West Kensington","TerminalName":"200197","Lat":51.49021762,"Long":-0.215087092,"Installed":true,"Locked":false},{"Name":"Disraeli Road, Putney","TerminalName":"200217","Lat":51.46161068,"Long":-0.21614583,"Installed":true,"Locked":false},{"Name":"Montserrat Road , Putney","TerminalName":"200205","Lat":51.46321128,"Long":-0.215550761,"Installed":true,"Locked":false},{"Name":"Albert Bridge Road, Battersea Park","TerminalName":"300045","Lat":51.47439218,"Long":-0.163347594,"Installed":true,"Locked":false},{"Name":"Everington Street, Fulham","TerminalName":"300028","Lat":51.48335692,"Long":-0.216305546,"Installed":true,"Locked":false},{"Name":"Mile End Stadium, Mile End","TerminalName":"300056","Lat":51.51854104,"Long":-0.034903714,"Installed":true,"Locked":false},{"Name":"Hawley Crescent, Camden Town","TerminalName":"200122","Lat":51.54100708,"Long":-0.14326094,"Installed":true,"Locked":false},{"Name":"Stewart's Road, Nine Elms","TerminalName":"300055","Lat":51.47311696,"Long":-0.137235175,"Installed":true,"Locked":false},{"Name":"Aylward Street, Stepney","TerminalName":"300049","Lat":51.51563007,"Long":-0.049067243,"Installed":true,"Locked":false},{"Name":"Stainsby Road , Poplar","TerminalName":"300048","Lat":51.51542791,"Long":-0.02356501,"Installed":true,"Locked":false},{"Name":"Dunston Road , Haggerston","TerminalName":"300024","Lat":51.53658514,"Long":-0.075885686,"Installed":true,"Locked":false},{"Name":"Ada Street, Hackney Central","TerminalName":"300040","Lat":51.53571683,"Long":-0.060291813,"Installed":true,"Locked":false},{"Name":"Victoria Park Road, Hackney Central","TerminalName":"300011","Lat":51.53642464,"Long":-0.054162264,"Installed":true,"Locked":false},{"Name":"Star Road, West Kensington","TerminalName":"300038","Lat":51.48724429,"Long":-0.205279052,"Installed":true,"Locked":false},{"Name":"Wendon Street, Old Ford","TerminalName":"300039","Lat":51.53603947,"Long":-0.026262677,"Installed":true,"Locked":false},{"Name":"Finnis Street, Bethnal Green","TerminalName":"300041","Lat":51.52458353,"Long":-0.058631453,"Installed":true,"Locked":false},{"Name":"Stephendale Road, Sands End","TerminalName":"300053","Lat":51.46822047,"Long":-0.190346493,"Installed":true,"Locked":false},{"Name":"Alma Road, Wandsworth","TerminalName":"300046","Lat":51.45799126,"Long":-0.184806157,"Installed":true,"Locked":false},{"Name":"Thessaly Road North, Nine Elms","TerminalName":"300050","Lat":51.47732253,"Long":-0.138748723,"Installed":true,"Locked":false},{"Name":"Alfreda Street, Battersea Park","TerminalName":"300047","Lat":51.47505096,"Long":-0.150908371,"Installed":true,"Locked":false},{"Name":"Chesilton Road, Fulham","TerminalName":"300054","Lat":51.47569809,"Long":-0.20587627,"Installed":true,"Locked":false},{"Name":"Putney Bridge Road, East Putney","TerminalName":"300044","Lat":51.46199911,"Long":-0.206240805,"Installed":true,"Locked":false},{"Name":"St. Peter's Terrace, Fulham","TerminalName":"300043","Lat":51.47893931,"Long":-0.208485293,"Installed":true,"Locked":false},{"Name":"Bridge Avenue, Hammersmith","TerminalName":"300082","Lat":51.49208492,"Long":-0.229116862,"Installed":true,"Locked":false},{"Name":"Michael Road, Walham Green","TerminalName":"300095","Lat":51.47727637,"Long":-0.189210466,"Installed":true,"Locked":false},{"Name":"Duke Street Hill, London Bridge","TerminalName":"300083","Lat":51.50630441,"Long":-0.087262995,"Installed":true,"Locked":false},{"Name":"Park Lane, Mayfair","TerminalName":"300093","Lat":51.50542628,"Long":-0.150817316,"Installed":true,"Locked":false},{"Name":"Plough Terrace, Clapham Junction","TerminalName":"300094","Lat":51.46230566,"Long":-0.175407201,"Installed":true,"Locked":false},{"Name":"Grant Road East, Clapham Junction","TerminalName":"200120","Lat":51.46489445,"Long":-0.17302926,"Installed":true,"Locked":false},{"Name":"Queensdale Road, Shepherd's Bush","TerminalName":"300088","Lat":51.50659035,"Long":-0.216104479,"Installed":true,"Locked":false},{"Name":"Fulham Broadway, Walham Green","TerminalName":"300086","Lat":51.47993289,"Long":-0.19411695,"Installed":true,"Locked":false},{"Name":"Imperial Road, Sands End","TerminalName":"300087","Lat":51.47514228,"Long":-0.187278987,"Installed":true,"Locked":false},{"Name":"Hortensia Road, West Brompton","TerminalName":"300091","Lat":51.48176572,"Long":-0.185273723,"Installed":true,"Locked":false},{"Name":"Sirdar Road, Avondale","TerminalName":"300084","Lat":51.51092871,"Long":-0.214594781,"Installed":true,"Locked":false},{"Name":"Freston Road, Avondale","TerminalName":"300085","Lat":51.5129814,"Long":-0.219486603,"Installed":true,"Locked":false},{"Name":"Blenheim Crescent, Ladbroke Grove","TerminalName":"300090","Lat":51.51510818,"Long":-0.208565479,"Installed":true,"Locked":false},{"Name":"Oxford Road, Putney","TerminalName":"300078","Lat":51.46079243,"Long":-0.212607684,"Installed":true,"Locked":false},{"Name":"Ingrave Street, Battersea","TerminalName":"300077","Lat":51.46745485,"Long":-0.172293499,"Installed":true,"Locked":false},{"Name":"Upcerne Road, West Chelsea","TerminalName":"300075","Lat":51.47816972,"Long":-0.18243547,"Installed":true,"Locked":false},{"Name":"Lots Road, West Chelsea","TerminalName":"300076","Lat":51.4795738,"Long":-0.17903854,"Installed":true,"Locked":false},{"Name":"Ormonde Gate, Chelsea","TerminalName":"300089","Lat":51.48796408,"Long":-0.161765173,"Installed":true,"Locked":false},{"Name":"Hertford Road, De Beauvoir Town","TerminalName":"300092","Lat":51.53727795,"Long":-0.079201849,"Installed":true,"Locked":false},{"Name":"Haggerston Road, Haggerston ","TerminalName":"300081","Lat":51.53932857,"Long":-0.074284675,"Installed":true,"Locked":false},{"Name":"Culvert Road, Battersea","TerminalName":"300080","Lat":51.4710956,"Long":-0.157850096,"Installed":true,"Locked":false},{"Name":"Newton Street, Covent Garden","TerminalName":"300074","Lat":51.51612862,"Long":-0.120909408,"Installed":true,"Locked":false},{"Name":"Manfred Road, East Putney","TerminalName":"300079","Lat":51.45816465,"Long":-0.20600248,"Installed":true,"Locked":false},{"Name":"Hammersmith Town Hall, Hammersmith","TerminalName":"300006","Lat":51.49263658,"Long":-0.234094148,"Installed":true,"Locked":false},{"Name":"Grenfell Road, Avondale","TerminalName":"300067","Lat":51.5129006,"Long":-0.214762686,"Installed":true,"Locked":false},{"Name":"The Vale, Chelsea","TerminalName":"300058","Lat":51.48512191,"Long":-0.174971902,"Installed":true,"Locked":false},{"Name":"Prince of Wales Drive, Battersea Park","TerminalName":"300073","Lat":51.47515398,"Long":-0.159169801,"Installed":true,"Locked":false},{"Name":"Harcourt Terrace, West Brompton","TerminalName":"300069","Lat":51.48795853,"Long":-0.187404506,"Installed":true,"Locked":false},{"Name":"Westbourne Park Road, Portobello","TerminalName":"300057","Lat":51.51787005,"Long":-0.201005397,"Installed":true,"Locked":false},{"Name":"Broadley Terrace, Marylebone","TerminalName":"300072","Lat":51.52456169,"Long":-0.165668686,"Installed":true,"Locked":false},{"Name":"Rossmore Road, Marylebone","TerminalName":"300071","Lat":51.52526975,"Long":-0.163795009,"Installed":true,"Locked":false},{"Name":"Humbolt Road, Fulham","TerminalName":"300068","Lat":51.48321729,"Long":-0.211860644,"Installed":true,"Locked":false},{"Name":"Storey's Gate, Westminster","TerminalName":"200202","Lat":51.50070305,"Long":-0.129698963,"Installed":true,"Locked":false},{"Name":"Mile End Park Leisure Centre, Mile End","TerminalName":"300027","Lat":51.52059714,"Long":-0.032566533,"Installed":true,"Locked":false},{"Name":"St. John's Road, Clapham Junction","TerminalName":"200185","Lat":51.46239255,"Long":-0.16829214,"Installed":true,"Locked":false},{"Name":"Ranelagh Gardens, Fulham","TerminalName":"300064","Lat":51.46760141,"Long":-0.20682737,"Installed":true,"Locked":false},{"Name":"Ram Street, Wandsworth","TerminalName":"200079","Lat":51.45752945,"Long":-0.192165613,"Installed":true,"Locked":false},{"Name":"Santos Road, Wandsworth","TerminalName":"200177","Lat":51.45705988,"Long":-0.200806304,"Installed":true,"Locked":false},{"Name":"Clapham Common Northside, Clapham Common","TerminalName":"300065","Lat":51.46134382,"Long":-0.159322467,"Installed":true,"Locked":false},{"Name":"Sandilands Road, Walham Green","TerminalName":"300001","Lat":51.473611,"Long":-0.191803,"Installed":true,"Locked":false},{"Name":"Gwendwr Road, West Kensington","TerminalName":"300097","Lat":51.491026,"Long":-0.209121,"Installed":true,"Locked":false},{"Name":"Rifle Place, Avondale","TerminalName":"300007","Lat":51.509224,"Long":-0.216016,"Installed":true,"Locked":false},{"Name":"Binfield Road, Stockwell","TerminalName":"300015","Lat":51.47250956,"Long":-0.122831913,"Installed":true,"Locked":false},{"Name":"Tallis Street, Temple","TerminalName":"300096","Lat":51.511891,"Long":-0.107349,"Installed":true,"Locked":false},{"Name":"Hurlingham Park, Parsons Green","TerminalName":"300098","Lat":51.470131,"Long":-0.20464,"Installed":true,"Locked":false},{"Name":"Little Brook Green, Brook Green","TerminalName":"300101","Lat":51.496664,"Long":-0.223868,"Installed":true,"Locked":false},{"Name":"Abyssinia Close, Clapham Junction","TerminalName":"300099","Lat":51.460333,"Long":-0.167029,"Installed":true,"Locked":false},{"Name":"Limburg Road, Clapham Common","TerminalName":"300100","Lat":51.4619230679,"Long":-0.165297856693,"Installed":true,"Locked":false}]}
